_id,LOC_ID,LOC_NAME,AUSPICE,ADDRESS,PostalCode,bldg_type,BLDGNAME,IGSPACE,TGSPACE,PGSPACE,KGSPACE,SGSPACE,TOTSPACE,subsidy,cwelcc_flag,Longitude,Latitude
1,1013,Lakeshore Community Child Care Centre,Non Profit Agency,101 SEVENTH ST,M8V,Public Elementary School,Seventh Street Public School,0,20,32,52,60,164,Y,Y,-79.50419384,43.59992437
2,1014,Alternative Primary School Parent Group,Non Profit Agency,1100 SPADINA RD,M5N,Public Elementary School,North Preparatory Public School,0,0,12,26,45,83,Y,Y,-79.42037489,43.705765578
3,1015,Cardinal Leger Child Care Centre (Scarborough),Non Profit Agency,600 MORRISH RD,M1C,Catholic Elementary School,Cardinal Leger Catholic School,0,10,16,26,50,102,Y,Y,-79.175461625,43.793287951
4,1016,George Brown - Richmond Adelaide Childcare Centre,Non Profit Agency,130 ADELAIDE ST W,M5H,Other,,10,15,40,0,0,65,Y,Y,-79.383809196,43.64968241
5,1017,Woodland Nursery School (Warden Woods Community Centre),Non Profit Agency,1 FIRVALLEY CRT,M1L,High Rise Apartment,,0,10,16,0,0,26,Y,Y,-79.2810286285,43.7029523574
6,1021,Centennial College Progress Campus Child Care Centre,Non Profit Agency,941 PROGRESS AVE,M1G,Community College/University,Centennial College Of Applied Arts & Technology,10,20,32,0,0,62,Y,Y,-79.227026428,43.785264658
7,1029,Air-O-Down Child Care Centre,Non Profit Agency,7 HAWKSDALE RD,M3K,Public High School,Downsview Secondary School,10,15,24,0,0,49,Y,Y,-79.479517489,43.730867839
8,1031,Cedarbrae Day Nurseries (20 Greencrest),Commercial Agency,20 GREENCREST CIRCT,M1G,High Rise Apartment,Greencrest Property,0,0,16,0,30,46,Y,Y,-79.2234312468,43.7583695279
9,1037,Tiago Avenue Community Child Care,Non Profit Agency,145 TIAGO AVE,M4B,Public Elementary School,Victoria Park Public School,0,0,21,0,30,51,Y,Y,-79.2981539649,43.7126977771
10,1041,Ledbury Park Child Care Program,Non Profit Agency,95 FALKIRK ST,M5M,Public Elementary School,Ledbury Park Public School,0,0,24,39,90,153,Y,Y,-79.427182305,43.727425311
11,1044,Alderwood Action After School,Non Profit Agency,544 HORNER AVE,M8W,Public Elementary School,Sir Adam Beck School,0,15,32,52,90,189,Y,Y,-79.548275664,43.601781231
12,1045,Children's Village Day Care Centre #1,Commercial Agency,1050 MARKHAM RD,M1H,High Rise Apartment,,10,10,32,12,30,94,Y,Y,-79.231567533,43.774364871
13,1046,Ferncliff Daycare And After School Group,Non Profit Agency,128 FERN AVE,M6R,Public Elementary School,Fern Avenue Junior And Senior Public School,0,0,32,52,100,184,Y,Y,-79.446112847,43.645180313
14,1055,Balmy Beach Community Day Care Centre,Non Profit Agency,14 PINE AVE,M4E,Public Elementary School,Balmy Beach Public School,0,0,16,52,75,143,Y,Y,-79.289826943,43.676435913
15,1060,Braeburn Woods Day Care Centre,Non Profit Agency,15 TANDRIDGE CRES,M9W,Public Elementary School,Braeburn Junior School,0,10,16,25,30,81,Y,Y,-79.548863811,43.728029826
16,1065,Network Child Care Services - Child's Nest Early Learning Centre,Non Profit Agency,121 COSBURN AVE,M4J,House,,20,20,0,0,0,40,Y,Y,-79.3473897066,43.6894844926
17,1067,Martingrove Child Care Centre,Commercial Agency,256 JOHN GARLAND BLVD,M9V,House,,0,15,24,10,15,64,Y,Y,-79.590958081,43.734260972
18,1070,Discovery Place Child Care Centre Ltd.,Commercial Agency,22 TUXEDO CRT,M1G,Purpose Built,,10,20,48,20,45,143,Y,Y,-79.2296426663,43.7805430702
19,1072,Carefree Preschool,Commercial Agency,370 DIXON RD,M9R,High Rise Apartment,,20,15,48,0,0,83,N,Y,-79.5561577436,43.6959151803
20,1079,East Scarb. Boys' & Girls' Club - Eastside Child Care Centre,Non Profit Agency,20 WALDOCK ST,M1E,Public Elementary School,Eastview Public School,0,15,24,26,45,110,Y,Y,-79.191280443,43.758963359
21,1082,Macaulay - Regent Street Child Care Centre,Non Profit Agency,48 REGENT ST,M6N,Synagogue,,10,10,24,0,0,44,Y,Y,-79.4700872989,43.6810721434
22,1083,Lori Gardens Centre For Early Learning,Commercial Agency,2405 FINCH AVE W,M9M,High Rise Apartment,,10,15,28,22,25,100,Y,Y,-79.544032103,43.750621289
23,1086,Network - Child's Nest Early Years And Child Care Centre - 123 Cosburn,Non Profit Agency,123 COSBURN AVE,M4J,House,,0,10,48,0,0,58,Y,Y,-79.3472700626,43.6894969221
24,1091,Eastside Club Day Care - 100 Galloway Road,Non Profit Agency,100 GALLOWAY RD,M1E,Community/Recreation Centre,,10,15,24,0,0,49,Y,Y,-79.193338505,43.757428446
25,1093,Martin Luther Child Care - Superior,Non Profit Agency,5 SUPERIOR AVE,M8V,House,,0,10,16,0,0,26,Y,Y,-79.4876370893,43.6149559543
26,1094,Arbor Glen Community Child Care Centre,Non Profit Agency,55 FRESHMEADOW DR,M2H,Public Elementary School,Arbor Glen Public School,0,0,24,26,45,95,Y,Y,-79.3557126812,43.8094949961
27,1095,Frankland Day Care Centre,Non Profit Agency,816 LOGAN AVE,M4K,Public Elementary School,Frankland Community School,0,0,0,26,50,76,Y,Y,-79.349680084,43.677150668
28,1098,Early Adventures Nursery School & Child Care,Commercial Agency,200 MELROSE ST,M8Y,Public Elementary School,George R Gauld Public School,0,15,24,26,30,95,Y,N,-79.498405689,43.620566264
29,1101,Beatty Buddies Daycare,Non Profit Agency,55 WOODINGTON AVE,M4C,Public Elementary School,Earl Beatty Public School,0,15,40,52,75,182,Y,Y,-79.321345627,43.686068457
30,1103,Selwyn Community Child Care Centre,Non Profit Agency,1 SELWYN AVE,M4B,Public Elementary School,Selwyn Public School,0,0,22,33,35,90,Y,Y,-79.3063291531,43.7084482439
31,1104,Mandi Day Care,Non Profit Agency,30 BARRHEAD CRES,M9W,Public (school closed),Mississauga Private School/ Rexdale (Closed),0,25,32,0,15,72,Y,Y,-79.566552194,43.719313229
32,1107,Educare Kindergarten - Rathburn,Commercial Agency,18 FOUR SEASONS PL,M9B,Office Building,Four Seasons Place,0,10,24,0,30,64,Y,N,-79.5627163167,43.6469200352
33,1111,Rolph Road Day Care,Non Profit Agency,31 ROLPH RD,M4G,Public Elementary School,Rolph Road Public School,0,0,20,40,65,125,Y,Y,-79.366000714,43.699854125
34,1116,Guildwood Child Care,Commercial Agency,3969 KINGSTON RD,M1J,High Rise Apartment,,10,20,32,12,30,104,Y,Y,-79.2033413635,43.751490726
35,1123,Ernie Boccia Creative Child Day Care (Rasheda Alli),Commercial Agency,1 NORTHWESTERN AVE,M6M,Multi Human Services Facility,Harold And Grace Baker Centre,10,20,16,0,0,46,Y,Y,-79.469786324,43.697936733
36,1125,First Stage - Burnhamthorpe,Non Profit Agency,500 THE EAST MALL,M9B,Public High School,Burnhamthorpe Collegiate Institute,10,15,16,0,0,41,Y,Y,-79.561694872,43.649167928
37,1127,Fairbank Memorial Day Care Centre,Non Profit Agency,555 HARVIE AVE,M6E,Public Elementary School,Fairbank Memorial,0,10,16,13,15,54,Y,Y,-79.455405701,43.691703239
38,1129,First Stage - West Humber,Non Profit Agency,1675 MARTIN GROVE RD,M9V,Public High School,West Humber Collegiate Institute,10,15,16,0,0,41,Y,Y,-79.5867086973,43.730930992
39,1130,Red Apple Day Care (Overlea),Non Profit Agency,135 OVERLEA BLVD,M3C,Public High School,Marc Garneau Collegiate Institute,10,10,16,0,0,36,Y,Y,-79.3349711654,43.7089842767
40,1135,Fraser School - Community Day Care Centre,Non Profit Agency,79 MANNING AVE,M6J,Public Elementary School,Charles G. Fraser Public School,0,10,44,26,60,140,Y,Y,-79.409483626,43.648530085
41,1137,Golf Road School Child Care Centre Inc.,Non Profit Agency,730 SCARBOROUGH GOLF CLUB RD,M1G,Public Elementary School,Golf Road Junior Public School,0,10,16,26,30,82,Y,Y,-79.21688767,43.763903609
42,1138,McKee McKids Enrichment Centre,Non Profit Agency,35 CHURCH AVE,M2N,Public Elementary School,McKee Public School,0,0,24,52,90,166,Y,Y,-79.411056255,43.774107859
43,1140,Leaside Day Care Centre,Non Profit Agency,206 LAIRD DR,M4G,Other,,20,35,44,0,0,99,Y,Y,-79.364199279,43.711090599
44,1141,Gold Circle Early Childhood Day Care Centre,Non Profit Agency,25 POYNTER DR,M9R,Public Elementary School,Westway Junior Public School,0,15,24,26,45,110,Y,Y,-79.548993308,43.690822116
45,1148,Park Lawn Preschool,Non Profit Agency,71 BALLACAINE DR,M8Y,Public Elementary School,Park Lawn Junior And Middle School,0,15,24,39,75,153,Y,Y,-79.496450189,43.6377151818
46,1150,George Harvey Child Care Centre,Non Profit Agency,1700 KEELE ST,M6M,Public High School,George Harvey Collegiate Institute,10,15,16,0,0,41,Y,Y,-79.473699191,43.684546506
47,1157,Children's Circle Of St. Barnabas,Non Profit Agency,361 DANFORTH AVE,M4K,Place of Worship,St. Barnabas Anglican Church,10,15,56,26,45,152,Y,Y,-79.352328558,43.677270845
48,1160,Morningside Children's Centre,Commercial Agency,292 MORNINGSIDE AVE,M1E,House,,0,15,16,10,0,41,Y,Y,-79.1879386335,43.7721629221
49,1167,McNicoll Avenue Child Care Program,Non Profit Agency,155 MCNICOLL AVE,M2H,Public (school closed),McNicoll Avenue Public School,10,15,24,0,0,49,Y,Y,-79.358084393,43.798981667
50,1169,N.Y.A.D. Guildwood,Non Profit Agency,225 LIVINGSTON RD,M1E,Public Elementary School,Guildwood Junior Public School,0,0,16,26,30,72,Y,Y,-79.19998986,43.7508296829
51,1170,Arpi Nursery School,Commercial Agency,39 CARL HALL RD,M3K,Industrial Building,,20,25,64,0,0,109,Y,Y,-79.477937189,43.746981167
52,1174,Bonaventure Child Care Centre,Non Profit Agency,295 DUFFERIN ST,M6K,High Rise Apartment,,10,25,32,0,0,67,Y,Y,-79.427304751,43.640041335
53,1180,Children's Primary Centre,Non Profit Agency,177 BEVERLEY ST,M5T,Place of Worship,Chinese Presbyterian Church,0,0,24,12,0,36,N,Y,-79.394247852,43.655569189
54,1182,Happy Day Child Care Centre,Commercial Agency,676 JANE ST,M6N,Purpose Built,,0,0,24,12,20,56,Y,Y,-79.4927883106,43.6684582856
55,1190,Abiona Centre For Infant And Early Mental Health's Early Learning,Non Profit Agency,40 HUMEWOOD DR,M6C,House,Humewood House,10,15,0,0,0,25,Y,Y,-79.427386594,43.684175563
56,1192,Nsheemaehn Child Care Centre,Non Profit Agency,1255 MILITARY TRAIL,M1C,Purpose Built,University Of Toronto Scarborough Campus,10,10,32,0,0,52,Y,Y,-79.188141955,43.785651926
57,1193,Childspace Day Care Corporation # 1 (50 Woodmount),Non Profit Agency,50 WOODMOUNT AVE,M4C,Catholic Elementary School,St. Brigid's Catholic School,0,0,0,52,68,120,Y,Y,-79.316847385,43.686816763
58,1194,Royal Day Care Centre Weston Inc,Commercial Agency,1737 WESTON RD,M9N,Purpose Built,Royal Daycare,0,10,56,0,39,105,Y,Y,-79.510582113,43.698647518
59,1196,Rosalie Hall Early Learning And Child Care Centre,Non Profit Agency,3020 LAWRENCE AVE E,M1P,Other,,30,25,24,0,0,79,Y,Y,-79.2485258383,43.7556002941
60,1200,Alpha,Non Profit Agency,20 BRANT ST,M5V,Public Elementary School,Alpha Alternative Primary School,0,0,0,0,30,30,Y,Y,-79.398222584,43.645722027
61,1201,Humewood Day Care Centre,Non Profit Agency,15 CHERRYWOOD AVE,M6C,Public Elementary School,Humewood Community School,0,0,32,52,30,114,Y,Y,-79.4280237018,43.6866436809
62,1204,Rexdale Day Nursery,Non Profit Agency,925 ALBION RD,M9V,Community/Rec Centre - City,Thistletown Multi Service Centre,0,0,48,0,25,73,Y,Y,-79.562580343,43.735470478
63,1205,Sandbox Day Care Centre,Commercial Agency,15 ORTON PARK RD,M1G,High Rise Apartment,,0,10,38,12,28,88,Y,Y,-79.2054482242,43.7652112364
64,1207,Humber Bay Child Care Centre,Non Profit Agency,50 CLOVERHILL RD,M8Y,Public Elementary School,Etienne Brule Junior Public School,0,15,24,26,60,125,Y,Y,-79.48968445,43.635618734
65,1211,Humber Child Development Centre,Non Profit Agency,205 HUMBER COLLEGE BLVD,M9W,Community College/University,Humber College Of Applied Arts And Technology,20,30,48,0,0,98,Y,Y,-79.606839866,43.729166545
66,1213,Avenue Road Nursery School,Commercial Agency,1498 AVENUE RD,M5N,Place of Worship,St. Ansgar Church,0,30,64,0,0,94,Y,Y,-79.4158334706,43.7220582825
67,1216,Roseland Day Care Centre,Non Profit Agency,990 JANE ST,M6N,Public Elementary School,Roseland Public School,0,10,16,13,30,69,Y,Y,-79.4990642754,43.6812353739
68,1221,Romero Bears Child Care Centre,Non Profit Agency,99 HUMBER BLVD,M6N,Catholic High School,Archbishop Romero Catholic School,0,10,16,0,0,26,Y,Y,-79.481017278,43.680309004
69,1229,Lescon Learners Child Care,Non Profit Agency,34 LESCON RD,M2J,Public Elementary School,Lescon Public School,10,10,24,26,30,100,Y,Y,-79.357738981,43.780829622
70,1231,Childspace Day Care Corporation # 2 (690 Carlaw),Non Profit Agency,690 CARLAW AVE,M4K,Catholic Elementary School,Holy Name Catholic School,0,15,24,26,45,110,Y,Y,-79.3472880616,43.6773560871
71,1232,Dawes Road Centre For Early Learning,Commercial Agency,391 DAWES RD,M4B,Other,,20,20,40,0,0,80,Y,Y,-79.2967584159,43.7017780919
72,1235,Silverstone Learning Centre,Commercial Agency,520 SILVERSTONE DR,M9V,Public Elementary School,Melody Village Public School,0,10,16,20,30,76,Y,Y,-79.594842585,43.738134746
73,1248,Brock Early Learning Centre,Non Profit Agency,93 MARGUERETTA ST,M6H,Public Elementary School,Brock Avenue Public School,0,15,32,26,60,133,Y,Y,-79.437844131,43.653049691
74,1250,Sunny Faces Day Care Centre - Rivercrest,Non Profit Agency,30 HAREFIELD DR,M9W,Public Elementary School,Rivercrest Public School,0,0,24,26,50,100,Y,Y,-79.569517738,43.729716175
75,1254,Baycrest Child Care Centre,Non Profit Agency,50 AMEER AVE,M6A,Public Elementary School,Baycrest Public School,10,30,48,52,30,170,Y,Y,-79.441705401,43.72869218
76,1255,Campus Community Co-Operative Day Care,Non Profit Agency,370 HURON ST,M5S,Purpose Built,,10,15,24,0,0,49,Y,Y,-79.400723993,43.66458077
77,1258,Carmelite Day Nursery,Non Profit Agency,108 HARRISON ST,M6J,Purpose Built,,16,25,48,44,42,175,Y,Y,-79.421990946,43.651204311
78,1266,Network Child Care Services - Just Kids Child Care Centre,Non Profit Agency,1695 KEELE ST,M6M,Place of Worship,York Memorial Church,10,20,32,0,0,62,Y,Y,-79.472600901,43.685143311
79,1267,Plains Road Child Care Inc.,Non Profit Agency,520 PLAINS RD,M4C,Catholic Elementary School,Canadian Martyrs Catholic School,10,20,32,26,30,118,Y,Y,-79.3193418547,43.69820851
80,1271,J.R. Wilcox Day Care Centre,Non Profit Agency,231 AVA RD,M6C,Public Elementary School,J.R. Wilcox Community School,10,15,24,26,30,105,Y,Y,-79.4363085191,43.6949553843
81,1272,Lef- Silverthorn Early Learning Earth Centre,Non Profit Agency,2700 EGLINTON AVE W,M6M,Office Building,York Civic Centre,10,10,16,0,0,36,Y,Y,-79.478412376,43.689884238
82,1278,Sheppard Square Day Nursery,Commercial Agency,5600 SHEPPARD AVE E,M1B,High Rise Apartment,Apartment Building,10,30,48,0,30,118,Y,Y,-79.2363445715,43.7950106411
83,1280,Tiny Treasure Montessori,Commercial Agency,627 BURNHAMTHORPE RD,M9C,Place of Worship,Renforth Baptist Church,0,10,48,12,0,70,N,N,-79.5732025422,43.6436607437
84,1285,Kingsview Child Care,Commercial Agency,340 DIXON RD,M9R,High Rise Apartment,,20,15,40,0,24,99,Y,N,-79.5538551662,43.6956175866
85,1287,Terry Tan Child Centre (Bloordale),Non Profit Agency,4258 BLOOR ST W,M9C,Place of Worship,Bloordale United Church,10,25,32,0,0,67,Y,Y,-79.5688556079,43.6346279603
86,1288,A & A Child Care Centre,Non Profit Agency,3380 MIDLAND AVE,M1V,Other,,20,40,48,0,30,138,Y,Y,-79.290343323,43.809294037
87,1294,Cottingham Child Care Centre,Non Profit Agency,85 BIRCH AVE,M4V,Public Elementary School,Cottingham Public School,0,0,24,26,30,80,Y,Y,-79.395609014,43.680379433
88,1297,West Hill Centre For Early Learning (Centres For Early Learning Inc.),Commercial Agency,4010 LAWRENCE AVE E,M1E,High Rise Apartment,,10,15,40,0,0,65,Y,Y,-79.1988475843,43.7667315745
89,1298,B.F. Toronto Centre For Early Childhood Education,Commercial Agency,45 GOLFDOWN DR,M9W,Public Elementary School,The Elms Junior Middle School,0,10,24,26,30,90,Y,Y,-79.552113787,43.722227299
90,1306,Bayview Gardens Day Care Centre,Commercial Agency,3125 BAYVIEW AVE,M2K,Church,Greek Orthodox Community Centre,0,30,40,0,0,70,Y,Y,-79.390626833,43.781607059
91,1309,Tlc - Tender Loving Care (Cross St.),Commercial Agency,44 CROSS ST,M9N,House,,0,10,16,10,24,60,Y,Y,-79.5259235589,43.704991839
92,1324,Cedarbrae Day Nursery (1375 Midland),Commercial Agency,1375 MIDLAND AVE,M1P,High Rise Apartment,,20,35,16,0,0,71,Y,Y,-79.2636073728,43.7499873653
93,1328,Donald C. Macdonald Child Care Centre,Non Profit Agency,116 INDUSTRY ST,M6M,Other,York Business Opportunities Centre,10,25,31,0,0,66,Y,Y,-79.493091533,43.694140114
94,1335,Blaydon Community Day Care Centre,Non Profit Agency,25 BLAYDON AVE,M3M,Public Elementary School,Blaydon Public School,0,10,16,26,22,74,Y,Y,-79.486256135,43.735357223
95,1336,Lef - Vaughan Road Infant And Toddler Centre,Non Profit Agency,529 VAUGHAN RD,M6C,Public High School,Vaughan Road Collegiate,10,15,24,0,0,49,Y,Y,-79.436702823,43.691021697
96,1339,Cedarbrae Day Nursery,Commercial Agency,1385 MIDLAND AVE,M1P,High Rise Apartment,,0,0,32,20,45,97,Y,Y,-79.2638428764,43.750636326
97,1340,Central Eglinton Childrens' Centre,Non Profit Agency,223 EGLINTON AVE E,M4P,Public Elementary School,Eglinton Public School,0,15,48,91,120,274,Y,Y,-79.390846829,43.707903743
98,1347,Children Of Tomorrow - John McCrae,Non Profit Agency,431 MCCOWAN RD,M1J,Public Elementary School,John McCrae Public School,0,0,0,26,60,86,Y,Y,-79.239886514,43.744044251
99,1348,Brookhaven Child Care,Non Profit Agency,70 BROOKHAVEN DR,M6M,Public Elementary School,Brookhaven Public School,0,15,24,52,60,151,Y,Y,-79.4956976768,43.7025148929
100,1350,Terry Tan Child Care (Rossburn) Facility #4450,Non Profit Agency,15 ROSSBURN DR,M9C,Public Elementary School,Eatonville Public School,10,10,32,26,30,108,Y,Y,-79.566615072,43.637840779
101,1351,Birchmount Place Centre For Early Learning,Commercial Agency,2360 BIRCHMOUNT RD,M1T,High Rise Apartment,,10,15,32,0,24,81,Y,Y,-79.2995706265,43.7829393273
102,1356,Vincent Massey Academy - (521909 Ontario Ltd.),Commercial Agency,68 DAISY AVE,M8W,Other,Vincent Massey Academy,0,45,48,0,0,93,Y,N,-79.528339976,43.597813879
103,1360,Immanuel Child Care Centre,Non Profit Agency,21 CHANNEL NINE CRT,M1S,Place of Worship,Immanuel School Society Of East Toronto,0,30,56,0,0,86,Y,Y,-79.257688104,43.783841891
104,1361,Dandylion Childcare Centre,Non Profit Agency,53 DONLANDS AVE,M4J,Public Elementary School,Wilkinson Public School (Annex),0,0,32,78,135,245,Y,Y,-79.337483239,43.682041627
105,1367,Kiddies Lodge Day Care Centre,Commercial Agency,764 ELLESMERE RD,M1P,Place of Worship,Members In Christ Assemblies,0,15,24,0,30,69,Y,Y,-79.2870119529,43.7649359323
106,1371,Knob Hill Day Nursery,Non Profit Agency,23 GAGE AVE,M1J,Place of Worship,Knob Hill United Church,10,15,24,0,0,49,Y,Y,-79.248828649,43.7490357018
107,1372,Central Neighbourhood House,Non Profit Agency,349 ONTARIO ST,M5A,Community/Recreation Centre,Central Neighbourhood House,10,20,16,0,0,46,Y,Y,-79.36887606,43.66052162
108,1373,Calico Saints Child Care Centre,Non Profit Agency,35 CALICO DR,M3L,Public Elementary School,Calico Public School,10,15,24,65,60,174,Y,Y,-79.503592042,43.737906172
109,1374,Palisades Centre For Early Learning,Commercial Agency,15 SAN ROMANOWAY,M3N,Community/Recreation Centre,Palisades Recreation Centre,20,15,48,24,30,137,Y,Y,-79.5160095136,43.7591084523
110,1379,Davisville Care Programme Inc.,Non Profit Agency,50 DAVISVILLE AVE,M4S,Public Elementary School,Davisville Public School,10,20,40,104,150,324,Y,Y,-79.394784882,43.698961435
111,1381,Centro Clinton Day Care Centre,Non Profit Agency,460 MANNING AVE,M6G,Public Elementary School,Clinton Public School,0,20,32,52,77,181,Y,Y,-79.414057574,43.657646075
112,1383,Kimbercroft Day Nursery 2,Commercial Agency,39 KIMBERCROFT CRT,M1S,High Rise Apartment,,0,0,48,0,30,78,Y,Y,-79.2388852552,43.7919230806
113,1391,Progress Childcare (Scarborough Inc. #1 (3 Glamorgan),Non Profit Agency,3 GLAMORGAN AVE,M1P,High Rise Apartment,,10,10,40,22,0,82,Y,Y,-79.282623224,43.768435059
114,1395,Tamarack Day Care Centre (765566 Ontario Inc),Commercial Agency,3315 MIDLAND AVE,M1V,Purpose Built,Commercial Space,0,25,48,24,45,142,Y,Y,-79.2884508161,43.8074060967
115,1396,Mothercraft: Robertson House (32 Heath Street West),Non Profit Agency,32 HEATH ST W,M4V,Purpose Built,Mothercraft,10,20,24,0,0,54,Y,Y,-79.396549387,43.690217265
116,1402,Mother Of Compassion Child Care,Non Profit Agency,40 SEWELLS RD,M1B,Catholic High School,Mother Theresa Catholic Secondary School,10,15,24,0,0,49,Y,Y,-79.214483491,43.809723233
117,1413,Albion Early Learning  & Child Care Centre,Public (City Operated) Agency,1545 ALBION RD,M9V,Purpose Built,,10,20,24,0,0,54,Y,Y,-79.58642587,43.740245499
118,1414,Centennial College East York Day Care (Plains Rd),Non Profit Agency,175 PLAINS RD,M4J,Public Elementary School,Diefenbaker Public School,0,0,0,13,30,43,Y,Y,-79.33164018,43.695042025
119,1420,Cast For Kids Child Care Centre,Non Profit Agency,1430 SHEPPARD AVE W,M3M,Public Elementary School,Sheppard Public School,10,15,24,26,45,120,Y,Y,-79.488260657,43.745424353
120,1425,Vradenburg Community Child Care Centre,Non Profit Agency,50 VRADENBERG DR,M1T,Public Elementary School,Vradenburg Junior Public School,10,15,24,26,30,105,Y,Y,-79.308286293,43.774342261
121,1426,Educare Kindergarten - Islington,Commercial Agency,2825 ISLINGTON AVE,M9L,High Rise Apartment,Swiss Court,0,10,32,18,30,90,Y,N,-79.5674794959,43.7483361093
122,1430,N.Y.A.D. Donwood Inc,Non Profit Agency,61 DORCOT AVE,M1P,Public Elementary School,Donwood Park Public School,0,10,16,26,30,82,Y,Y,-79.2623683219,43.7569869147
123,1434,Champions Children's Centre,Non Profit Agency,9 GRENOBLE DR,M3C,Public Elementary School,Grenoble Public School,0,0,16,26,60,102,Y,Y,-79.332759752,43.715431088
124,1439,Wexford Community Childcare Centre,Non Profit Agency,1 WAYNE AVE,M1R,Public Elementary School,George Peck Public School,10,15,16,26,30,97,Y,Y,-79.2936384069,43.7382670776
125,1440,Petit Pearson Child Care,Non Profit Agency,7 SNOWCREST AVE,M2K,Public Elementary School,Lester B. Pearson Public School,0,15,24,26,105,170,Y,Y,-79.38746232,43.792319441
126,1445,Children Are People Education,Non Profit Agency,272 CODSELL AVE,M3H,Community/Recreation Centre,Borochov Centre,20,55,56,0,0,131,Y,Y,-79.458920481,43.754734328
127,1448,Rainbow Village Childcare Centre (Mid-Scarborough Child Care),Non Profit Agency,2460 EGLINTON AVE E,M1K,Purpose Built,,6,25,56,13,30,130,Y,Y,-79.26264594,43.7341047804
128,1452,Cambridge Place Centre For Early Learning,Commercial Agency,30 DENTON AVE,M1L,High Rise Apartment,Apartment Building,10,15,48,20,0,93,Y,Y,-79.2876990656,43.6939780128
129,1453,Downtown Montessori At Coatsworth (Formerly Ward Nine -Coatsworth),Non Profit Agency,11 COATSWORTH CRES,M4C,High Rise Apartment,Hanson Building,10,15,32,0,0,57,Y,Y,-79.321136292,43.678997338
130,1454,Dunloe Children's Centre,Non Profit Agency,78 DUNLOE RD,M5P,Public Elementary School,Forest Hill Public School,0,0,56,0,30,86,Y,Y,-79.413938591,43.695376253
131,1458,Enriched Child Care Learning Centre,Commercial Agency,6030 BATHURST ST,M2R,High Rise Apartment,,0,10,24,0,0,34,Y,Y,-79.4475892246,43.7878226343
132,1460,Children's Village Day Care Centre #3,Commercial Agency,225 MARKHAM RD,M1J,High Rise Apartment,,10,15,24,16,40,105,Y,Y,-79.2190765702,43.746190112
133,1462,Howard Park Children's Centre,Non Profit Agency,30 MARMADUKE ST,M6R,Public Elementary School,Howard Public School,0,0,0,65,120,185,Y,Y,-79.452272093,43.650426307
134,1466,Heart Beatz Child Care - Cliffcrest Site,Non Profit Agency,2938 EGLINTON AVE E,M1J,Commercial Building,Torrance Plaza,10,20,24,0,0,54,Y,Y,-79.235713801,43.739882036
135,1467,Earl Haig Community Day Care (15 Earl Haig Avenue),Non Profit Agency,15 EARL HAIG AVE,M4C,Public Elementary School,Earl Haig Public School,10,15,46,65,105,241,Y,Y,-79.321250472,43.681331448
136,1475,George Brown - Esther Exton Child Care Centre,Non Profit Agency,55 AMEER AVE,M6A,Other,Baycrest Centre For Geriatric Care,10,15,32,0,0,57,Y,Y,-79.440379598,43.728914942
137,1477,Yonge Hearts Child Care Centre,Non Profit Agency,5176 YONGE ST,M2N,Purpose Built,Yonge Hearts Child Care Centre,20,30,64,0,0,114,Y,Y,-79.414333569,43.770074509
138,1482,East Toronto Village Children's Centre,Non Profit Agency,43 KIMBERLEY AVE,M4E,Place of Worship,St. Saviour's Anglican Church,0,20,32,0,0,52,Y,Y,-79.297705243,43.682810687
139,1484,Phoenix Child Centre,Non Profit Agency,625 SENECA HILL DR,M2J,Public Elementary School,Seneca Hill Public School,0,0,30,52,30,112,Y,Y,-79.350300223,43.7908790279
140,1486,Scarborough Village Day Nursery 1,Commercial Agency,215 MARKHAM RD,M1J,High Rise Apartment,,6,15,24,13,15,73,Y,Y,-79.218768113,43.744688035
141,1488,Esterbrooke Child Care,Commercial Agency,35 ESTERBROOKE AVE,M2J,High Rise Apartment,Esterbrooke Properties Inc,0,0,24,10,20,54,N,Y,-79.3501562964,43.7784516563
142,1491,Les Bouts D'Choux,Non Profit Agency,98 ESSEX ST,M6G,Catholic Elementary (French),Ecole Sacre Coeur,10,10,40,26,45,131,Y,Y,-79.424213406,43.667857551
143,1495,Pleasant Child Care Of North York,Non Profit Agency,288 PLEASANT AVE,M2R,Public Elementary School,Pleasant Public School,0,10,24,26,45,105,Y,Y,-79.434557685,43.789955418
144,1496,Main Square Day Care Centre,Non Profit Agency,265 MAIN ST,M4C,High Rise Apartment,,0,15,24,0,26,65,Y,Y,-79.299964232,43.687784182
145,1498,McMurrich Sprouts,Non Profit Agency,115 WINONA DR,M6G,Public Elementary School,McMurrich Public School,10,15,40,52,60,177,Y,Y,-79.431061957,43.678076368
146,1500,Faywood Boulevard Child Care Centre,Non Profit Agency,95 FAYWOOD BLVD,M3H,Public Elementary School,Faywood Public School,0,0,24,52,80,156,Y,Y,-79.446697333,43.739855033
147,1504,Fenside Drive Children's Centre,Non Profit Agency,131 FENSIDE DR,M3A,Public Elementary School,Fenside Public School,0,15,48,39,75,177,Y,Y,-79.3291298007,43.7645891223
148,1507,Cougar Court Child Care Centre 25,Commercial Agency,3225 EGLINTON AVE E,M1J,Other,,0,0,16,0,60,76,Y,Y,-79.21618361,43.743424849
149,1509,Scarborough Village Day Nursery 2,Commercial Agency,155 MARKHAM RD,M1M,Place of Worship,Christ Church,0,0,16,0,15,31,Y,Y,-79.217805187,43.7417728822
150,1520,Birds And Bees Day Care Centre,Commercial Agency,720 KENNEDY RD,M1K,High Rise Apartment,,0,15,40,0,30,85,Y,Y,-79.2673564135,43.7295838093
151,1521,Cliffwood Community Child Care,Non Profit Agency,140 CLIFFWOOD RD,M2H,Public Elementary School,Cliffwood Public School,0,15,24,39,50,128,Y,Y,-79.360071839,43.8063006986
152,1522,Finch Flyers Child Care Program,Non Profit Agency,277 FINCH AVE E,M2N,Public Elementary School,Finch Public School,0,10,24,52,60,146,Y,Y,-79.394974203,43.783833079
153,1525,Hilltop Daycare Centre,Non Profit Agency,160 NORTH BONNINGTON AVE,M1K,Purpose Built,,10,15,32,0,15,72,Y,Y,-79.2659484178,43.7152396623
154,1529,George Brown - Fashion District/Ryerson Child Care Centre,Non Profit Agency,96 DENISON AVE,M5T,Public Elementary School,Ryerson Public School,0,0,0,26,30,56,Y,Y,-79.402379732,43.651281707
155,1531,Today's Child Tomorrow's Future Children's Centre (290 Blantyre),Non Profit Agency,290 BLANTYRE AVE,M1N,Public Elementary School,Blantyre Public School,0,0,32,39,45,116,Y,Y,-79.2838678574,43.6851086748
156,1533,John A. Leslie Childcare - Scarborough,Non Profit Agency,459 MIDLAND AVE,M1N,Public Elementary School,John A. Leslie Public School,0,15,24,26,30,95,Y,Y,-79.249059374,43.714108676
157,1536,Dalemount Child Care,Non Profit Agency,101 ENGLEMOUNT AVE,M6B,Public Elementary School,Glen Park Public School,0,0,32,26,55,113,Y,Y,-79.435747325,43.713223823
158,1538,Kenlinton Child Care Centre (Operator: Stonehill) Facility #16008,Commercial Agency,2283 EGLINTON AVE E,M1K,High Rise Apartment,Apartment Building,0,0,32,0,30,62,Y,Y,-79.2723812981,43.7305583723
159,1539,Friends Day Care Centre,Non Profit Agency,60 LOWTHER AVE,M5R,Church,Quakers Meeting House,0,0,16,0,0,16,Y,Y,-79.398763827,43.670536824
160,1544,Kennedy Road Kiddy Kare - (Kennedy Road Church Of The Nazarene),Non Profit Agency,661 KENNEDY RD,M1K,Church,,0,10,24,0,30,64,Y,Y,-79.264672082,43.725616361
161,1547,Today's Child Tomorrow's Future Children's Centre,Non Profit Agency,725 DANFORTH RD,M1K,Public Elementary School,Norman Cook Junior Public School,0,15,18,26,23,82,Y,Y,-79.2577983189,43.7190477327
162,1548,Gan Yeladim Day Care Centre,Non Profit Agency,100 ELDER ST,M3H,Synagogue,Beth Emeth Bais Yehuda Synagogue,0,15,32,10,0,57,Y,Y,-79.4541231662,43.7606577647
163,1551,Don Valley Christian Child Care,Non Profit Agency,25 AXSMITH CRES,M2J,Place of Worship,Don Valley Bible Chapel,10,15,24,0,0,49,Y,Y,-79.3521911537,43.7886589597
164,1552,Play Care Program/ West Scarborough Neighbourhood Com.Centre.,Non Profit Agency,313 PHARMACY AVE,M1L,Community/Recreation Centre,West Scarborough Neighbourhood Community Centre,0,0,0,0,40,40,Y,Y,-79.2846817825,43.701416363
165,1554,Pride In Heritage Children's Centre,Non Profit Agency,55 GATEWAY BLVD,M3C,Public Elementary School,Gateway Public School,0,10,24,52,75,161,Y,Y,-79.3310123749,43.7117348145
166,1559,St. Michael And All Angels Day Care Centre,Non Profit Agency,611 ST CLAIR AVE W,M6C,Place of Worship,St. Michael's And All Angels Church,10,15,40,0,0,65,Y,Y,-79.422923641,43.681940252
167,1562,Gateway Day Care Centre,Commercial Agency,100 LEEWARD GLENWAY,M3C,High Rise Apartment,,10,10,24,0,12,56,Y,Y,-79.3284613121,43.711405543
168,1566,Glen Cameron For Kids,Non Profit Agency,211 CAMERON AVE,M2N,Public Elementary School,Cameron Public School,0,0,16,26,68,110,Y,Y,-79.4212548061,43.7543692985
169,1567,Downsview Child Care Centre,Non Profit Agency,159 SIR WILLIAM HEARST AVE,M3M,Office Building,Ontario Ministry Of Transportation Building D,10,20,24,0,0,54,Y,Y,-79.487091621,43.723023764
170,1570,Ranchdale Rompers Day Care,Non Profit Agency,60 RANCHDALE CRES,M3A,Public Elementary School,Ranchdale Public School,0,10,24,26,60,120,Y,Y,-79.3232946647,43.7524665993
171,1577,Playhouse Child Care Centre,Non Profit Agency,15 GREENLAND RD,M3C,Public Elementary School,Greenland Public School,10,10,32,26,0,78,Y,Y,-79.338536158,43.7336156338
172,1578,Rejoyce Caledon Community Child Care,Non Profit Agency,26 JOYCE PKY,M6B,Public Elementary School,Joyce Public School,0,0,20,39,45,104,Y,Y,-79.463757489,43.709775397
173,1580,Garderie La Farandole Gabrielle Roy,Non Profit Agency,14 PEMBROKE ST,M5A,Public Elementary (French),Ecole Elementaire Gabrielle-Roy,10,10,32,52,45,149,Y,Y,-79.372319597,43.656582836
174,1585,West Prep Children's Centre Of Toronto,Non Profit Agency,70 RIDGE HILL DR,M6C,Public Elementary School,West Preparatory Public School,0,15,32,52,60,159,Y,Y,-79.432944062,43.702616187
175,1588,Greenland Recreational After School Program,Non Profit Agency,15 GREENLAND RD,M3C,Public Elementary School,Greenland Public School,0,0,0,0,45,45,Y,Y,-79.338536158,43.7336156338
176,1589,Dublin Heights Community Child Care,Non Profit Agency,100 BAINBRIDGE AVE,M3H,Public Elementary School,Dublin Heights Elementary And Middle School,0,10,24,52,80,166,Y,Y,-79.447024737,43.749148308
177,1593,Garrison Creek Community Day Care,Non Profit Agency,222 NIAGARA ST,M6J,Public Elementary School,Niagara Street Public School,0,15,16,52,65,148,Y,Y,-79.408252928,43.64393746
178,1598,Rippleton Roadsters Child Care Program,Non Profit Agency,21 RIPPLETON RD,M3B,Public Elementary School,Rippleton Public School,0,0,48,52,60,160,Y,Y,-79.3601236993,43.7409134352
179,1601,Gulfstream Day Care Centre,Non Profit Agency,20 GULFSTREAM RD,M9M,Public Elementary School,Gulfstream Public School,10,15,24,26,60,135,Y,Y,-79.5420130895,43.7390865695
180,1603,Highview Wilson Child Care,Non Profit Agency,22 HIGHVIEW AVE,M3M,Public Elementary School,Highview Public School,0,0,16,26,45,87,Y,Y,-79.4972335426,43.7219596358
181,1605,Hillmount Child Care,Non Profit Agency,245 MCNICOLL AVE,M2H,Public Elementary School,Hillmount Public School,0,0,24,26,30,80,Y,Y,-79.3507297482,43.7994162004
182,1607,Hollywood All Stars Child Care,Non Profit Agency,360 HOLLYWOOD AVE,M2N,Public Elementary School,Hollywood Public School,0,0,16,39,75,130,Y,Y,-79.391832381,43.770527111
183,1613,John Ross Robertson Child Centre,Non Profit Agency,130 GLENGROVE AVE W,M4R,Public Elementary School,John Ross Robertson Public School,0,0,40,52,120,212,Y,Y,-79.408864298,43.718325974
184,1614,Kew Beach Day Care Co-Op Inc.,Non Profit Agency,101 KIPPENDAVIE AVE,M4L,Public Elementary School,Kew Beach Public School,0,0,40,52,74,166,Y,Y,-79.302727315,43.66846424
185,1617,Givins/Shaw School Community Day Care,Non Profit Agency,49 GIVINS ST,M6J,Public Elementary School,Givins Shaw Junior Senior Public School,0,0,24,39,45,108,Y,Y,-79.417686472,43.646216608
186,1618,Roywood Child Care North York,Non Profit Agency,11 ROYWOOD DR,M3A,Public Elementary School,Roywood Public School,0,0,24,26,45,95,Y,Y,-79.3217764059,43.7647326766
187,1619,Wilmington Best Child Care Centre,Non Profit Agency,330 WILMINGTON AVE,M3H,Public Elementary School,Wilmington Elementary School,0,0,24,78,54,156,Y,Y,-79.460498024,43.768558382
188,1624,Junction Day Care Centre,Non Profit Agency,265 ANNETTE ST,M6P,Public Elementary School,Annette Street Public School,0,0,32,78,90,200,Y,Y,-79.472831274,43.661423188
189,1625,Gledhill Avenue Child Care Centre,Non Profit Agency,2 GLEDHILL AVE,M4C,Public Elementary School,Gledhill Junior Public School,0,0,24,52,60,136,Y,Y,-79.309286466,43.68754833
190,1629,Kids Haven Community Child Care,Non Profit Agency,46 CRESTHAVEN DR,M2H,Public Elementary School,Cresthaven Public School,0,10,32,13,30,85,Y,Y,-79.363540251,43.79721913
191,1630,Kids Korner Day Care,Non Profit Agency,180 WESTMORELAND AVE,M6H,Community/Recreation Centre,Dovercourt Boys And Girls Club,0,0,24,0,0,24,Y,Y,-79.432692284,43.665806445
192,1633,York University Co-Operative Day Care Centre,Non Profit Agency,90 ATKINSON RD,M3J,High Rise Apartment,Atkinson Residence,20,35,79,0,15,149,Y,Y,-79.501737568,43.771350321
193,1635,Hawthorne-On-Essex Day Care,Non Profit Agency,50 ESSEX ST,M6G,Public Elementary School,Hawthorne II Alternative Bilingual School,0,15,32,52,70,169,Y,Y,-79.422365484,43.668235743
194,1636,Keelmount Daycare Centre,Non Profit Agency,99 MOUNTVIEW AVE,M6P,Public Elementary School,Keele Public School,0,10,24,52,90,176,Y,Y,-79.461596579,43.657507474
195,1643,Le Petit Chaperon Rouge - Gainsborough,Non Profit Agency,250 GAINSBOROUGH RD,M4L,Catholic Elementary (French),Ãcole ÃlÃ©mentaire Catholique Georges-Etienne-Cartier,0,0,16,48,77,141,Y,Y,-79.319473115,43.677903881
196,1644,Kindercircle Day Care,Non Profit Agency,150 KILGOUR RD,M4G,Hospital/Health Centre,Holland Bloorview Kids Rehab,10,15,0,0,0,25,Y,Y,-79.3729662214,43.718418191
197,1645,Kensington Kids Early Learning Centre,Non Profit Agency,401 COLLEGE ST,M5T,Public Elementary School,Kensington Community School,10,15,48,26,0,99,Y,Y,-79.405731527,43.656397816
198,1651,Lawrence Heights Community Day Care Centre,Non Profit Agency,10 FLEMINGTON RD,M6A,Public Elementary School,Flemington Public School,10,20,24,39,45,138,Y,Y,-79.444454008,43.720087576
199,1653,Yorkview Kids Care,Non Profit Agency,130 YORKVIEW DR,M2R,Public Elementary School,Yorkview Public School,0,0,16,52,45,113,Y,Y,-79.4355696892,43.7725822112
200,1663,Hester How Early Learning Centre,Non Profit Agency,100 QUEEN ST W,M5H,Office Building,Toronto City Hall,12,20,24,20,0,76,Y,Y,-79.383625059,43.65282214
201,1664,Sunnybrook Creche,Non Profit Agency,2075 BAYVIEW AVE,M4N,Other,Sunnybrook Health Science Centre,10,25,36,0,0,71,Y,Y,-79.377875373,43.721937648
202,1665,Montrose Child Care Centre Inc.,Non Profit Agency,301 MONTROSE AVE,M6G,Public Elementary School,Montrose Public School,10,15,16,26,50,117,Y,Y,-79.418843718,43.658681585
203,1670,Topcliff Community Child Care,Non Profit Agency,65 TOPCLIFF AVE,M3N,Public Elementary School,Topcliff Public School,0,0,24,26,45,95,Y,Y,-79.510658888,43.755585095
204,1680,Lord Dufferin Community Day Care Centre,Non Profit Agency,350 PARLIAMENT ST,M5A,Public Elementary School,Lord Dufferin Public School,0,0,0,40,100,140,Y,Y,-79.366955064,43.660824533
205,1683,Oakwood Children's House,Non Profit Agency,115 WINONA DR,M6G,Public Elementary School,McMurrich Public School,0,0,16,0,0,16,Y,Y,-79.431061957,43.678076368
206,1687,Faith Lutheran Day Care Centre Of Downsview,Non Profit Agency,96 HUCKNALL RD,M3J,Place of Worship,Faith Lutheran Church,0,15,24,0,0,39,Y,Y,-79.497002443,43.755602199
207,1690,Matthew-John Early Learning Centre,Non Profit Agency,135 FIRST AVE,M4M,Place of Worship,St. Matthew's Anglican Church,0,15,32,26,0,73,Y,Y,-79.347174396,43.665409919
208,1691,St Mark's Day Care Centre - Greenland Road,Non Profit Agency,1 GREENLAND RD,M3C,Place of Worship,St. Mark's Presbyterian Church,0,10,32,25,0,67,Y,Y,-79.339493778,43.733445298
209,1692,Huron Superfriends Inc.,Non Profit Agency,541 HURON ST,M5R,Public Elementary School,Huron Street Public School,0,0,0,52,59,111,Y,Y,-79.402421583,43.670575509
210,1693,Rendezvous Child Care Centre,Non Profit Agency,18 DALLINGTON DR,M2J,Public Elementary School,Dallington Public School,0,0,16,26,65,107,Y,Y,-79.3547585895,43.7771367306
211,1698,Ogden Day Care Centre,Non Profit Agency,33 PHOEBE ST,M5T,Public Elementary School,Ogden Public School,0,15,24,52,45,136,Y,Y,-79.395126857,43.650013614
212,1699,Three Valleys Children's Centre,Non Profit Agency,76 THREE VALLEYS DR,M3A,Public Elementary School,Three Valleys Public School,0,10,32,26,60,128,Y,Y,-79.337604399,43.750680654
213,1702,Hydrokids - Opg,Non Profit Agency,700 UNIVERSITY AVE,M5G,Other,Ontario Power Generation,10,20,52,0,0,82,Y,Y,-79.3911913127,43.6590163089
214,1705,Tot World Child Care Centre,Non Profit Agency,25 YORKWOODS GATE,M3N,Public Elementary School,Yorkwoods Elementary School,10,15,24,52,45,146,Y,Y,-79.513884747,43.75065984
215,1712,Jackman Community Daycare,Non Profit Agency,79 JACKMAN AVE,M4K,Public Elementary School,Jackman Avenue Public School,0,0,40,52,150,242,Y,Y,-79.353935362,43.680650211
216,1714,Orde Day Care Centre (Orde Street),Non Profit Agency,18 ORDE ST,M5T,Public Elementary School,Orde Street Public School,0,0,32,39,60,131,Y,Y,-79.39218319,43.658555788
217,1715,Tumpane Child Care Learning Centre,Non Profit Agency,48 TUMPANE ST,M3M,Public Elementary School,Tumpane Public School,0,15,24,52,90,181,Y,Y,-79.5022583759,43.7266038671
218,1717,Start Right Child Care Centre,Non Profit Agency,38 ORFUS RD,M6A,Public High School,Yorkdale Secondary School And Adult Learning Centre,10,15,24,0,0,49,Y,Y,-79.459725099,43.72016206
219,1721,Van Horne Day Care,Commercial Agency,201 VAN HORNE AVE,M2J,High Rise Apartment,,0,10,16,0,24,50,Y,Y,-79.353703275,43.786395807
220,1731,Shaughnessy Boulevard Children's Centre,Non Profit Agency,30 SHAUGHNESSY BLVD,M2J,Public Elementary School,Shaughnessy Public School,0,20,40,39,45,144,Y,Y,-79.351600873,43.770284042
221,1737,Sunburst Children's Centre,Non Profit Agency,4905 DUFFERIN ST,M3H,Other,Environment Canada Atmospheric Environment Service,10,15,16,0,0,41,Y,Y,-79.4684969747,43.781259284
222,1738,Victoria Park Child Care Centre,Non Profit Agency,15 WALLINGFORD RD,M3A,Public High School,Victoria Park Secondary School,10,10,16,0,0,36,Y,Y,-79.321464427,43.756059334
223,1740,Early Enrichment Day Care (St. John's West Toronto),Non Profit Agency,288 HUMBERSIDE AVE,M6P,Place of Worship,St. John's Anglican Church,10,20,24,0,0,54,Y,Y,-79.469192969,43.660640124
224,1749,Palmerston Community Daycare,Non Profit Agency,734 PALMERSTON AVE,M6G,Public Elementary School,Palmerston Public School,0,0,48,26,60,134,Y,Y,-79.415204951,43.668144904
225,1750,Sandalwood Centre For Early Learning (Centres For Early Learning Inc.),Commercial Agency,1825 FINCH AVE W,M3N,High Rise Apartment,,10,25,56,24,30,145,Y,Y,-79.511912431,43.757886117
226,1751,Seafield Day Nursery,Commercial Agency,100 YORK GATE BLVD,M3N,High Rise Apartment,,10,15,40,24,30,119,Y,Y,-79.5199371956,43.7621440095
227,1755,St. Lawrence Co-Operative Day Care School Age (230 The Esplanade),Non Profit Agency,230 THE ESPLANADE,M5A,Community/Recreation Centre,St. Lawrence Community Centre,0,0,48,0,56,104,Y,Y,-79.364980115,43.649797534
228,1756,Lakeside Co-Operative Playschool Inc.,Non Profit Agency,2226 QUEEN ST E,M4E,Place of Worship,St. Aidan's Anglican Church,0,9,16,0,0,25,Y,Y,-79.28798601,43.672833583
229,1758,Pape Children's House,Non Profit Agency,220 LANGLEY AVE,M4K,Public Elementary School,Pape Avenue Public School,0,15,32,48,30,125,Y,Y,-79.341893614,43.670351882
230,1765,Pat Schulz Child Care Centre,Non Profit Agency,1 DANFORTH AVE,M4K,Public High School,City Adult Learning Centre,10,15,24,0,0,49,Y,Y,-79.360060799,43.674919446
231,1768,Roden Community Child Care Centre,Non Profit Agency,151 HIAWATHA RD,M4L,Public Elementary School,Roden Public School,0,0,16,13,30,59,Y,Y,-79.32307648,43.673873274
232,1769,West End Parents Day Care Centre,Non Profit Agency,375 DOVERCOURT RD,M6J,Public (school closed),Ossington/Old Orchard Public School - Closed School,0,15,40,0,30,85,Y,Y,-79.425194329,43.652331833
233,1775,Williamson Road Day Care Centre,Non Profit Agency,24 WILLIAMSON RD,M4E,Public Elementary School,Williamson Road Public School,0,0,0,26,90,116,Y,N,-79.2974730091,43.6745196506
234,1778,Woodgreen Community Services (Woodfield Child Care Centre),Non Profit Agency,70 WOODFIELD RD,M4L,Public Elementary School,Duke Of Connaught Public School,6,25,24,65,45,165,Y,Y,-79.321957845,43.666195514
235,1786,Woodgreen Community Services (Morse Child Care Centre),Non Profit Agency,180 CARLAW AVE,M4M,Public Elementary School,Morse Street Public School,0,15,24,65,60,164,Y,Y,-79.34016669,43.660166916
236,1787,Muppets Pre-School Centre,Commercial Agency,88 SWEENEY DR,M4A,Public Elementary School,Victoria Village Elementary School,0,30,48,52,99,229,Y,Y,-79.3141852995,43.7359680183
237,1792,Muppets Too Preschool Centre,Commercial Agency,45 CASSANDRA BLVD,M3A,Public Elementary School,Cassandra Public School,0,15,24,26,65,130,Y,Y,-79.328901476,43.748425003
238,1793,Wychwood Tigers Daycare Centre,Non Profit Agency,44 HILTON AVE,M5R,Public Elementary School,Hillcrest Public School,0,0,40,52,60,152,Y,Y,-79.4158480244,43.6790510403
239,1800,St. Lawrence Co-Operative Day Care (2 Princess Street),Non Profit Agency,2 PRINCESS ST,M5A,Purpose Built,,0,25,24,0,0,49,Y,Y,-79.365709334,43.64781978
240,1812,George Brown - Rose Avenue Child Care Centre,Non Profit Agency,675 ONTARIO ST,M4X,Public Elementary School,Rose Avenue Public School,10,10,24,65,60,169,Y,Y,-79.372788102,43.670316471
241,1818,Runnymede Adventure Club,Non Profit Agency,357 RUNNYMEDE RD,M6S,Public Elementary School,Runnymede Public School,0,0,0,52,110,162,Y,Y,-79.477481716,43.655929301
242,1819,Bloorcourt Village Early Learning Centre,Commercial Agency,823 DOVERCOURT RD,M6H,Purpose Built,,10,30,36,0,30,106,Y,Y,-79.42974879,43.66312856
243,1823,Sunnyside Garden Day Care,Non Profit Agency,225 GARDEN AVE,M6R,Public Elementary School,Garden Public School,0,15,23,52,90,180,Y,Y,-79.449123697,43.6432001
244,1824,Ryerson Early Learning Centre (Ryerson University),Non Profit Agency,350 VICTORIA ST,M5B,Community College/University,Ryerson University,0,15,32,0,0,47,Y,Y,-79.380479827,43.65776563
245,1827,Upper Yonge Village Day Care Centre,Non Profit Agency,14 ST CLEMENTS AVE,M4R,Other,Other,10,25,24,0,0,59,Y,Y,-79.400348212,43.713083488
246,1832,Candy Factory Swallows Day Care (The),Commercial Agency,1411 BLOOR ST W,M6P,House,Plato Adult Education Centre,10,25,40,0,0,75,Y,Y,-79.44734824,43.657198297
247,1833,University Settlement Day Care Centre,Non Profit Agency,23 GRANGE RD,M5T,Community/Recreation Centre,University Settlement Recreation Centre,10,15,24,0,0,49,Y,Y,-79.391471039,43.652043323
248,1835,George Brown - Casa Loma Child Care Centre,Non Profit Agency,160 KENDAL AVE,M5R,Community College/University,Casa Loma Campus,10,15,40,0,0,65,Y,Y,-79.411045414,43.676012342
249,1837,Ancaster Early Learning & Child Care Centre,Public (City Operated) Agency,45 ANCASTER RD,M3K,Other,,10,30,24,0,0,64,Y,Y,-79.466011149,43.733025826
250,1838,Rawlinson Early Learning & Child Care Centre,Public (City Operated) Agency,40 EARNSCLIFFE RD,M6E,Public Elementary School,Rawlinson Community School,10,20,24,0,0,54,Y,Y,-79.439885162,43.683531656
251,1839,Alexandra Park Early Learning & Child Care Centre,Public (City Operated) Agency,75 AUGUSTA SQ,M5T,Low Rise Apartment,,10,10,16,0,0,36,Y,Y,-79.399901164,43.650242422
252,1840,Berner Trail Early Learning & Child Care Centre,Public (City Operated) Agency,120 BERNER TRAIL,M1B,Public Elementary School,Berner Trail Public School,10,20,24,0,0,54,Y,Y,-79.221141309,43.801434103
253,1842,Brahms Early Learning & Child Care Centre,Public (City Operated) Agency,5 BRAHMS AVE,M2H,High Rise Apartment,,6,10,16,0,0,32,Y,Y,-79.3578376974,43.7927282049
254,1843,Willowridge Early Learning & Child Care Centre,Public (City Operated) Agency,30 EARLDOWN DR,M9R,Purpose Built,,0,10,32,0,0,42,Y,Y,-79.57126527,43.675704295
255,1847,Blake Street Early Learning & Child Care Centre,Public (City Operated) Agency,84 BLAKE ST,M4J,Community/Recreation Centre,Eastview Neighbourhood Community Centre,10,15,24,0,0,49,Y,Y,-79.339764106,43.674967456
256,1848,Rowntree Early Learning & Child Care Centre,Public (City Operated) Agency,2765 ISLINGTON AVE,M9V,High Rise Apartment,,10,10,16,0,0,36,Y,Y,-79.5669913807,43.7435749087
257,1850,Gilder Early Learning & Child Care Centre,Public (City Operated) Agency,31 GILDER DR,M1K,High Rise Apartment,,10,20,0,0,0,30,Y,Y,-79.256313276,43.736255093
258,1851,Edgeley Early Learning & Child Care Centre,Public (City Operated) Agency,405 DRIFTWOOD AVE,M3N,Purpose Built,,10,15,32,0,0,57,Y,Y,-79.5160705542,43.7671747775
259,1852,Emery Early Learning & Child Care Centre,Public (City Operated) Agency,3395 WESTON RD,M9M,Public High School,Emery Collegiate Institute,10,10,16,0,0,36,Y,Y,-79.539556981,43.748722706
260,1853,Taylor Creek Early Learning & Child Care Centre,Public (City Operated) Agency,644 WARDEN AVE,M1L,Public Elementary School,Taylor Creek Public School,10,10,16,0,0,36,Y,Y,-79.277287739,43.700037759
261,1854,Thomas Berry Early Learning & Child Care Centre,Public (City Operated) Agency,3495 LAKE SHORE BLVD W,M8W,Other,Old James S. Bell Public School (Closed),10,20,32,0,0,62,Y,Y,-79.530735817,43.594365123
262,1855,Galloway Early Learning & Child Care Centre,Public (City Operated) Agency,4299 KINGSTON RD,M1E,High Rise Apartment,,10,10,16,0,0,36,Y,Y,-79.193646562,43.762340279
263,1857,Falstaff Early Learning & Child Care Centre,Public (City Operated) Agency,10 FALSTAFF AVE,M6L,Purpose Built,,16,20,32,0,0,68,Y,Y,-79.5066721478,43.7160930065
264,1858,Canadiana Court Early Learning & Child Care Centre,Public (City Operated) Agency,20 GORDONRIDGE PL,M1K,Community/Recreation Centre,Gordonridge Community Centre,10,10,16,0,0,36,Y,Y,-79.250764805,43.726007156
265,1860,Centenary Seven Oaks  Early Learning & Child Care Centre,Public (City Operated) Agency,9 NEILSON RD,M1E,Purpose Built,Seven Oaks Home For The Aged,10,15,24,0,0,49,Y,Y,-79.203578896,43.7816467137
266,1861,Mount Dennis Early Learning & Child Care Centre,Public (City Operated) Agency,1296 WESTON RD,M6M,Purpose Built,,10,10,16,0,0,36,Y,Y,-79.4960622799,43.6890657377
267,1863,Kipling Early Learning & Child Care Centre,Public (City Operated) Agency,2233 KIPLING AVE,M9W,Other,Kipling Acres Home For The Aged,10,10,16,0,0,36,Y,Y,-79.571998245,43.725135116
268,1869,Flemingdon Early Learning & Child Care Centre,Public (City Operated) Agency,29 ST DENNIS DR,M3C,Community/Recreation Centre,Dennis R Timbrell Resource Centre,10,10,32,0,0,52,Y,Y,-79.331687362,43.717940677
269,1870,Regent Park Early Learning & Child Care Centre,Public (City Operated) Agency,40 REGENT ST,M5A,Purpose Built,,10,10,16,0,0,36,Y,Y,-79.364295179,43.658647944
270,1874,O'Connor Satellite Early Learning & Child Care Centre,Public (City Operated) Agency,1665 O CONNOR DR,M4A,Public Elementary School,O'Connor Public School,0,0,16,0,0,16,Y,Y,-79.3041553523,43.7165159199
271,1875,O'Connor Early Learning & Child Care Centre,Public (City Operated) Agency,1386 VICTORIA PARK AVE,M4A,Community/Recreation Centre,O'Connor Community Centre,10,20,16,0,0,46,Y,Y,-79.301856195,43.7176677023
272,1878,Blacksmith Child Care Centre,Non Profit Agency,45 BLACKSMITH CRES,M3N,Public Elementary School,Blacksmith Public School,0,10,16,26,30,82,Y,Y,-79.52681069,43.771163954
273,1882,Stilecroft Superkids,Non Profit Agency,50 STILECROFT DR,M3J,Public Elementary School,Stilecroft Public School,0,10,16,13,15,54,Y,Y,-79.493205095,43.751055819
274,1887,Davenport Perth Early Learning & Child Care Centre,Public (City Operated) Agency,1900 DAVENPORT RD,M6N,Community/Recreation Centre,Davenport Perth Community Centre,10,10,16,0,0,36,Y,Y,-79.454858588,43.670920013
275,1888,Coxwell Early Learning & Child Care Centre,Public (City Operated) Agency,1631 QUEEN ST E,M4L,Multi Human Services Facility,Toronto Employment And Social Services-Toronto East Office,0,10,16,0,0,26,Y,Y,-79.31557687,43.666300712
276,1889,Jesse Ketchum Early Learning & Child Care Centre,Public (City Operated) Agency,7 BERRYMAN ST,M5R,Public Elementary School,Jesse Ketchum Public School,10,10,16,0,60,96,Y,Y,-79.391598893,43.673604783
277,1890,Danforth Early Learning & Child Care Centre,Public (City Operated) Agency,1125 DANFORTH AVE,M4J,Purpose Built,Danforth Child Care Centre,20,20,24,0,0,64,Y,Y,-79.333812147,43.680841582
278,1891,Church Street School Day Care Service Inc.,Non Profit Agency,83 ALEXANDER ST,M4Y,Public Elementary School,Church Street Public School,0,10,16,52,80,158,Y,Y,-79.37917817,43.663608426
279,1893,The Yonge Street Mission / Davis Centre,Non Profit Agency,270 GERRARD ST E,M5A,Community/Recreation Centre,Christian Community Centre,10,15,40,0,0,65,Y,Y,-79.3683414488,43.6623713476
280,1895,North York Jr Ymca,Non Profit Agency,567 SHEPPARD AVE E,M2K,Community/Recreation Centre,North York Ymca,0,30,48,0,0,78,Y,Y,-79.3867792864,43.765882842
281,1896,West End Jr Ymca,Non Profit Agency,931 COLLEGE ST,M6H,Community/Recreation Centre,West End Ymca,0,30,40,0,15,85,Y,Y,-79.425887632,43.653456547
282,1898,Ymca Child Development Centre (Ymca),Non Profit Agency,15 BREADALBANE ST,M4Y,Community/Recreation Centre,Toronto Central Ymca,10,30,48,26,30,144,Y,Y,-79.3848447836,43.6636315307
283,1900,Second Street School Age Ymca,Non Profit Agency,71 SECOND ST,M8V,Public Elementary School,Second Street School,0,0,0,39,60,99,Y,Y,-79.500022907,43.603725079
284,1901,Lamp Jr Ymca,Non Profit Agency,185 FIFTH ST,M8V,Community/Recreation Centre,Lamp Community Centre,0,15,32,0,0,47,Y,Y,-79.50343066,43.603564725
285,1902,University City Jr Ymca,Non Profit Agency,453 SENTINEL RD,M3J,Community/Recreation Centre,University City Ymca,20,30,40,0,0,90,Y,Y,-79.499448651,43.7625712055
286,1907,St. Gabriel's Jr Ymca,Non Profit Agency,396 SPRING GARDEN AVE,M2N,Catholic Elementary School,St. Gabriel's Separate School,0,0,16,26,30,72,Y,Y,-79.390933319,43.769049281
287,1909,Cougar Court Child Care Centre 15,Commercial Agency,3225 EGLINTON AVE E,M1J,Other,,30,55,64,0,0,149,Y,Y,-79.21618361,43.743424849
288,1911,Lynngate Jr Ymca,Non Profit Agency,129 CASS AVE,M1T,Public Elementary School,Lynngate Jr Public School,0,10,24,26,30,90,Y,Y,-79.300660255,43.776676644
289,1912,Bridlewood Jr Ymca,Non Profit Agency,60 BRIDLEWOOD BLVD,M1T,Public Elementary School,Bridlewood Public School,0,0,24,26,30,80,Y,Y,-79.315095387,43.780796266
290,1913,Maryvale Jr Ymca,Non Profit Agency,1325 PHARMACY AVE,M1R,Public Elementary School,Maryvale Public School,0,10,24,26,30,90,Y,Y,-79.307836183,43.754822066
291,1914,David Lewis Jr Ymca,Non Profit Agency,130 FUNDY BAY BLVD,M1W,Public Elementary School,David Lewis Public School,0,0,32,26,30,88,Y,Y,-79.3178892896,43.8092053218
292,1915,High Park Jr Ymca,Non Profit Agency,2665 DUNDAS ST W,M6P,Community/Recreation Centre,,10,30,40,0,0,80,Y,Y,-79.4594752493,43.6645334751
293,1918,Wellesworth School Age Ymca,Non Profit Agency,225 WELLESWORTH DR,M9C,Public Elementary School,Wellesworth Public School,0,0,0,13,30,43,Y,Y,-79.576718746,43.656637342
294,1919,Wedgewood School Age Ymca,Non Profit Agency,5 SWAN AVE,M9B,Public Elementary School,Wedgewood Public School,0,0,0,52,60,112,Y,Y,-79.546252914,43.645316948
295,1926,Derrydown School Age Ymca,Non Profit Agency,120 DERRYDOWN RD,M3J,Public Elementary School,Derrydown Public School,0,0,0,26,30,56,Y,Y,-79.4937134612,43.7586985269
296,1927,Holy Spirit Jr Ymca,Non Profit Agency,3530 SHEPPARD AVE E,M1T,Catholic Elementary School,Holy Spirit Separate School,0,0,24,26,30,80,Y,Y,-79.302695677,43.781293598
297,1928,Pauline Johnson School Age Ymca,Non Profit Agency,35 DUNMURRAY BLVD,M1T,Public Elementary School,Pauline Johnson Junior Public School,0,0,0,13,30,43,Y,Y,-79.303571294,43.785129854
298,1929,Glamorgan School Age Ymca,Non Profit Agency,51 ANTRIM CRES,M1P,Public Elementary School,Glamorgan Public School,0,0,0,26,30,56,Y,Y,-79.2895570406,43.771308916
299,1931,Secord School Age Ymca,Non Profit Agency,91 BARRINGTON AVE,M4C,Community/Rec Centre - City,Secord Community Centre,0,0,0,0,30,30,Y,Y,-79.301568069,43.691772103
300,1934,William G. Miller School Age Ymca,Non Profit Agency,60 BENNETT RD,M1E,Public Elementary School,William G. Miller Junior Public School,0,0,0,26,45,71,Y,Y,-79.165034007,43.768513555
301,1935,McGregor Jr Ymca,Non Profit Agency,555 MORTIMER AVE,M4J,Public Elementary School,McGregor Public School,0,0,38,78,135,251,Y,Y,-79.327135744,43.689995257
302,1937,Chester Jr Ymca,Non Profit Agency,115 GOWAN AVE,M4K,Public Elementary School,Chester Public School,0,10,24,52,45,131,Y,Y,-79.351709981,43.687602382
303,1938,William Burgess Jr Ymca,Non Profit Agency,100 TORRENS AVE,M4J,Public Elementary School,William Burgess Public School,0,10,24,52,75,161,Y,Y,-79.348157727,43.691927726
304,1939,Albion Heights School Age Ymca,Non Profit Agency,45 LYNMONT RD,M9V,Public Elementary School,Albion Heights Public School,0,0,0,0,30,30,Y,Y,-79.594315501,43.731388262
305,1941,Humbercrest School Age Ymca,Non Profit Agency,14 ST MARKS RD,M6S,Public Elementary School,Humbercrest Junior Senior Public School,0,0,0,65,150,215,Y,Y,-79.4910586436,43.6604612262
306,1942,Brian Drive School Age Program (Ymca),Non Profit Agency,95 BRIAN DR,M2J,Public Elementary School,Brian Public School,0,0,0,0,45,45,Y,Y,-79.331933542,43.782453191
307,1943,Crestview School Age Program Ymca,Non Profit Agency,101 SENECA HILL DR,M2J,Public Elementary School,Crestview Public School,0,0,0,26,60,86,Y,Y,-79.359846604,43.78843218
308,1951,Knob Hill School Age Ymca,Non Profit Agency,25 SEMINOLE AVE,M1J,Public Elementary School,Knob Hill Public School,0,0,0,26,30,56,Y,Y,-79.249785031,43.74529228
309,1952,Hunter's Glen  School Age Ymca,Non Profit Agency,16 HAILEYBURY DR,M1K,Public Elementary School,Hunter's Glen Junior Public School,0,0,0,0,30,30,Y,Y,-79.260121987,43.745712249
310,1956,Brimwood School Age Ymca,Non Profit Agency,151 BRIMWOOD BLVD,M1V,Public Elementary School,Brimwood  Blvd. Jr. Public School,0,0,0,13,30,43,Y,Y,-79.2740928716,43.8117085028
311,1958,George Webster Jr Ymca,Non Profit Agency,50 CHAPMAN AVE,M4B,Public Elementary School,George Webster Public School,10,15,24,39,30,118,Y,Y,-79.299760621,43.7010489
312,3495,Northview Heights Early Learning Centre,Non Profit Agency,550 FINCH AVE W,M2R,Public High School,Northview Heights Secondary School,6,15,8,0,0,29,Y,Y,-79.446117704,43.773882768
313,3497,Scarborough Jr Ymca,Non Profit Agency,230 TOWN CENTRE CRT,M1P,Community/Recreation Centre,Scarborough Ymca,20,30,40,0,0,90,Y,Y,-79.2543745181,43.7746066328
314,3499,Blue Wave Child Care Centre,Non Profit Agency,50 DUNCAIRN RD,M3B,Public Elementary School,Norman Ingram Public School,10,20,24,52,0,106,Y,Y,-79.3496093764,43.7399610505
315,3507,Morrish Jr Ymca,Non Profit Agency,61 CANMORE BLVD,M1C,Public Elementary School,Morrish Public School,0,10,16,26,30,82,Y,Y,-79.1792732078,43.793196535
316,3508,Super Kids Day Care Centre,Commercial Agency,1149 WESTON RD,M6N,Place of Worship,Church Of The Good Shepherd,0,15,32,0,0,47,Y,Y,-79.4886726694,43.6868437243
317,3513,Our Lady Of Peace School Age Program (Ymca),Non Profit Agency,70 MATTICE AVE,M9B,Catholic Elementary School,Our Lady Of Peace Catholic School,0,0,0,26,60,86,Y,Y,-79.5410814414,43.6465208217
318,3537,Marguerite Butt Early Learning & Child Care Centre,Public (City Operated) Agency,3197 LAKE SHORE BLVD W,M8V,Other,Lakeshore Lodge Home For The Aged,10,20,32,0,0,62,Y,Y,-79.51855744,43.597345677
319,3550,Lucy Maud Montgomery Jr Ymca,Non Profit Agency,95 MURISON BLVD,M1B,Public Elementary School,Lucy Maud Montgomery Public School,10,10,16,26,45,107,Y,Y,-79.2093689076,43.7969254084
320,3551,Norman Ingram School Age Ymca,Non Profit Agency,50 DUNCAIRN RD,M3B,Public Elementary School,Norman Ingram Public School,0,0,0,0,30,30,Y,Y,-79.3496093764,43.7399610505
321,3596,Metro Hall Early Learning & Child Care Centre,Public (City Operated) Agency,55 JOHN ST,M5V,Office Building,Metro Hall,10,20,32,0,0,62,Y,Y,-79.388931496,43.646153794
322,3629,The South Drive Children's Circle,Non Profit Agency,22 SOUTH DR,M4W,Public Elementary School,Rosedale Public School,0,0,22,52,52,126,Y,Y,-79.381686023,43.67765573
323,3670,Mothercraft:  Brookfield Place - 161 Bay Street,Non Profit Agency,161 BAY ST,M5J,Other,Brookfield Place,10,10,32,0,0,52,Y,Y,-79.378775853,43.64651907
324,3701,Branson Pre-School Ltd.,Commercial Agency,4866 BATHURST ST,M2R,High Rise Apartment,,0,10,32,0,0,42,Y,Y,-79.4431815969,43.7716015203
325,3709,The Alderbuds Child Care Centre Of Etobicoke,Non Profit Agency,399 THE WEST MALL,M9C,Office Building,Etobicoke City Hall,10,15,24,0,0,49,Y,Y,-79.5654560752,43.6437806
326,3712,Allenby Day Care,Non Profit Agency,391 ST CLEMENTS AVE,M5N,Public Elementary School,Allenby Public School,0,15,16,78,150,259,Y,Y,-79.4127909823,43.7094442341
327,3733,Treetop Children's Centre,Non Profit Agency,80 BRAEMAR AVE,M5P,Public Elementary School,Oriole Park Junior School,0,0,43,78,60,181,Y,Y,-79.409693275,43.702571551
328,3736,John Wanless Child Care,Non Profit Agency,245 FAIRLAWN AVE,M5M,Public Elementary School,John Wanless Junior Public School,0,0,16,78,148,242,Y,Y,-79.412056691,43.728868637
329,3767,Unicorn Day Care Centre Toronto,Non Profit Agency,454 AVENUE RD,M4V,Public Elementary School,Brown Junior Public School,0,0,0,65,120,185,Y,Y,-79.401312277,43.684912913
330,3774,Timothy Eaton Infant & Toddler Centre,Non Profit Agency,35 GLENDOWER CIRCT,M1T,Public Elementary School,Highland Heights Jr. Public School,10,10,0,0,0,20,Y,Y,-79.30026234,43.794419906
331,3792,Abiona Centre For Infant And Early Mental Health's Early Learning,Non Profit Agency,1102 BROADVIEW AVE,M4K,Purpose Built,Massey Centre For Women,10,20,32,0,0,62,Y,Y,-79.356320186,43.686573868
332,3795,North Etobicoke Jr Ymca,Non Profit Agency,88 HUMBER COLLEGE BLVD,M9V,Low Rise Apartment,,20,20,32,0,0,72,Y,Y,-79.5986539334,43.7317348465
333,3810,Isabella Walton Child Care (Scarborough) Inc.,Non Profit Agency,835 BIRCHMOUNT RD,M1K,High Rise Apartment,,10,10,32,0,0,52,Y,Y,-79.2774145149,43.7293378043
334,3829,Queen Victoria Child Care Centre,Non Profit Agency,100 CLOSE AVE,M6K,Public Elementary School,Dr Rita Cox - Kina Minogok Public School,0,15,24,26,90,155,Y,Y,-79.435320697,43.636509493
335,3875,Fleming Jr Ymca,Non Profit Agency,22 LITTLES RD,M1B,Public Elementary School,Fleming Public School,0,10,16,26,30,82,Y,Y,-79.2034461426,43.815995375
336,3880,Casa Del Zotto Children's Centre,Non Profit Agency,3010 DUFFERIN ST,M6B,High Rise Apartment,Casa Del Zotto,0,30,48,0,0,78,Y,Y,-79.454992255,43.711862297
337,3884,Mothercraft:  Toronto Eaton Centre,Non Profit Agency,14 TRINITY SQ,M5G,Other,Marriott Hotel,10,10,32,0,0,52,Y,Y,-79.38147311,43.654478057
338,3893,Antica Village Children's Day Care Centre (646508 Ontario Ltd),Commercial Agency,360 HULLMAR DR,M3N,Community/Recreation Centre,Antica Recreation Centre,0,0,16,0,15,31,Y,Y,-79.5233241387,43.7735635514
339,3942,N.Y.A.D Scarborough Village,Non Profit Agency,15 LUELLA ST,M1J,Public Elementary School,Scarborough Village Public School,0,0,16,26,30,72,Y,Y,-79.222071791,43.744119359
340,3952,Millvalley Child Care Centre,Commercial Agency,411 MILL RD,M9C,Public Elementary School,Mill Valley,0,0,32,26,45,103,Y,Y,-79.586971574,43.644189383
341,3957,Swansea Kids Place,Non Profit Agency,207 WINDERMERE AVE,M6S,Public Elementary School,Swansea Public School,0,0,0,78,210,288,Y,Y,-79.477042751,43.643679285
342,3959,Sunflower House,Non Profit Agency,162 DUNN AVE,M6K,House,,10,10,24,0,0,44,Y,Y,-79.433403399,43.636975892
343,3963,Le Petit Chaperon Rouge - Etobicoke (Facility #12270),Non Profit Agency,755 ROYAL YORK RD,M8Y,Catholic Elementary (French),Ecole Sainte Marguerite D'Youville,0,15,20,49,75,159,Y,Y,-79.5060913332,43.6359662792
344,3967,Lady Bug Daycare Centre,Commercial Agency,400 BURNHAMTHORPE RD,M9B,Place of Worship,St. James United Church,0,0,48,0,0,48,N,N,-79.5562775297,43.6466991168
345,3970,Grace Church On-The-Hill Child Care Centre,Non Profit Agency,300 LONSDALE RD,M4V,Place of Worship,Grace Church On-The-Hill,20,42,30,0,0,92,Y,Y,-79.409729085,43.689506947
346,3972,Network Child Care Services - Ossington Avenue North,Non Profit Agency,756 OSSINGTON AVE,M6G,Other,Italian Congress Building,10,15,24,0,0,49,Y,Y,-79.426218069,43.662624052
347,3992,Our Lady Of Sorrows School Age Ymca,Non Profit Agency,32 MONTGOMERY RD,M8X,Catholic Elementary School,Our Lady Of Sorrows Catholic School,0,0,0,39,120,159,Y,Y,-79.518967037,43.648219364
348,4012,Kateri Kids Child Care Centre,Non Profit Agency,70 MARGARET AVE,M2J,Catholic Elementary School,Blessed Kateri Tekakwitha Separate School,0,0,16,0,30,46,Y,Y,-79.338051587,43.785819708
349,4028,Waterfront Montessori Childrens Centre,Non Profit Agency,18 WYANDOT AVE,M5J,Community/Recreation Centre,Algonquin Island Residents Association,0,0,24,0,0,24,Y,Y,-79.36218261,43.626520684
350,4044,Mary Ward Child Care Centre,Non Profit Agency,3200 KENNEDY RD,M1V,Catholic High School,Mary Ward Separate School,10,15,24,0,0,49,Y,Y,-79.30394007,43.815753423
351,4049,Rouge Valley Jr Ymca,Non Profit Agency,30 DURNFORD RD,M1B,Public Elementary School,Rouge Valley Public School,0,10,16,26,30,82,Y,Y,-79.151287388,43.799386255
352,4074,St. Bede Child Care Centre,Non Profit Agency,521 SEWELLS RD,M1B,Catholic Elementary School,St. Bede's Separate School,0,0,32,0,30,62,Y,Y,-79.206547702,43.817978902
353,4110,Whitney Child Centre,Non Profit Agency,119 ROSEDALE HEIGHTS DR,M4T,Public Elementary School,Whitney Public School,0,15,48,52,52,167,Y,Y,-79.3784005035,43.6871689272
354,4115,Churchill Chums School Age Child Care Centre,Non Profit Agency,188 CHURCHILL AVE,M2N,Public Elementary School,Churchill Public School,10,20,32,39,90,191,Y,Y,-79.4270394271,43.770762201
355,4144,Heath And Ferndale Child Care Program,Non Profit Agency,23 FERNDALE AVE,M4T,Public Elementary School,Deer Park Public School,0,15,48,78,120,261,Y,Y,-79.391556383,43.689651945
356,4176,Denlow Community Child Care Centre,Non Profit Agency,50 DENLOW BLVD,M3B,Public Elementary School,Denlow Public School,0,0,20,13,30,63,Y,Y,-79.3642309643,43.7458480917
357,4184,Dundas Kindergarten Enrichment Program,Non Profit Agency,935 DUNDAS ST E,M4M,Public Elementary School,Dundas Public School/First Nations Public School,0,0,0,52,60,112,Y,Y,-79.348686332,43.662077745
358,4186,York Humber Child Care,Non Profit Agency,100 EMMETT AVE,M6M,Public High School,York Humber High School,10,15,16,0,0,41,Y,Y,-79.506177455,43.688569188
359,4218,Dunlace Children's Centre,Non Profit Agency,20 DUNLACE DR,M2L,Public Elementary School,Dunlace Public School,0,0,24,26,52,102,Y,Y,-79.370357324,43.762459427
360,4240,French Connection,Non Profit Agency,40 ERSKINE AVE,M4P,Public Elementary School,John Fisher Public School,0,0,16,52,80,148,Y,Y,-79.3976721,43.711717738
361,4258,Port Royal Jr Ymca,Non Profit Agency,410 PORT ROYAL TRAIL,M1V,Public Elementary School,Port Royal Public School,0,0,32,39,60,131,Y,Y,-79.2898064586,43.8249777982
362,4263,Lambton Park Child Care Centre,Non Profit Agency,50 BERNICE CRES,M6N,Public Elementary School,Lambton Park Community School,0,0,16,26,30,72,Y,Y,-79.4983107577,43.6675845619
363,4307,Das Day Care,Non Profit Agency,85 LOWER JARVIS ST,M5E,Public Elementary School,Downtown Alternative Primary School,0,0,0,26,45,71,Y,Y,-79.370415651,43.647736135
364,4310,Trinity Bellwoods Community Children's Group/Care (Crawford Street),Non Profit Agency,155 CRAWFORD ST,M6J,Community/Rec Centre - City,Trinity Community Recreation Centre,0,0,0,0,40,40,Y,N,-79.415029713,43.646426517
365,4319,Brian's Petit Amis,Non Profit Agency,95 BRIAN DR,M2J,Public Elementary School,Brian Public School,0,10,24,52,0,86,Y,Y,-79.331933542,43.782453191
366,4323,Owen Community Learning Centre,Non Profit Agency,111 OWEN BLVD,M2P,Public Elementary School,Owen Public School,0,0,40,52,110,202,Y,Y,-79.3925194396,43.7490647823
367,4372,Briarcrest Child Care,Non Profit Agency,60 WELLESWORTH DR,M9C,Public Elementary School,Briarcrest Junior Public School,0,10,24,26,30,90,Y,Y,-79.580075285,43.666465768
368,4436,St. Cyril's Before & After School Programme,Non Profit Agency,18 KEMPFORD BLVD,M2N,Catholic Elementary School,St. Cyril's Separate School,0,0,0,39,45,84,Y,Y,-79.416627978,43.776953517
369,4543,Network Child Care Services - Ossington Avenue South,Non Profit Agency,720 OSSINGTON AVE,M6G,Place of Worship,Ossington Avenue Baptist Church,0,15,24,0,0,39,Y,Y,-79.425631413,43.661611745
370,4545,Northlea Community Child Care,Non Profit Agency,305 RUMSEY RD,M4G,Public Elementary School,Northlea Public School,0,15,24,78,105,222,Y,Y,-79.369662892,43.71444366
371,4547,N.Y.A.D. Corvette,Non Profit Agency,30 CORVETTE AVE,M1K,Public Elementary School,Corvette Junior Public School,10,15,16,52,60,153,Y,Y,-79.262162924,43.72649371
372,4565,Life-Bridge Child Care,Non Profit Agency,330 UNIVERSITY AVE,M5G,Office Building,Canada Life Building,10,15,32,0,0,57,Y,Y,-79.387577254,43.651696608
373,4571,The Squirrels' Nest Child Care Centre,Non Profit Agency,1305 ELLESMERE RD,M1P,Purpose Built,,10,25,32,26,30,123,Y,Y,-79.264155035,43.769038519
374,4590,Garderie Chez Tante Laure,Non Profit Agency,339 ALTON TOWERS CIR,M1V,Public Elementary (French),Ecole Elementaire Laure-Riese,0,10,24,26,30,90,Y,Y,-79.27742207,43.822462605
375,4637,Jewish Russian Community Centre Preschool & Day Care,Non Profit Agency,5950 BATHURST ST,M2R,High Rise Apartment,,0,15,24,24,0,63,Y,Y,-79.4460923651,43.7833167719
376,4680,Woodgreen Community Services (Riverdale Child Care),Non Profit Agency,1094 GERRARD ST E,M4M,Public High School,Riverdale Collegiate Institue,10,15,24,0,0,49,Y,Y,-79.334859821,43.670047694
377,4708,North York Little Prints Daycare,Non Profit Agency,20 YORK MILLS RD,M2P,Other,,20,30,40,0,0,90,Y,Y,-79.404700689,43.744584933
378,4714,Malvern Early Learning & Child Care Centre,Public (City Operated) Agency,1321 NEILSON RD,M1B,Purpose Built,,10,20,32,0,0,62,Y,Y,-79.218864561,43.808288056
379,4745,Downtown Montessori At Simcoe Place,Non Profit Agency,200 FRONT ST W,M5V,Other,Simcoe Place,12,15,32,0,0,59,Y,Y,-79.385533584,43.644901739
380,4750,First Stage - North Albion,Non Profit Agency,2580 KIPLING AVE,M9V,Public High School,North Albion Collegiate Institute,10,15,16,0,0,41,Y,Y,-79.5851460803,43.7471501635
381,4839,Macaulay - Humberwood Child Care Centre,Non Profit Agency,850 HUMBERWOOD BLVD,M9W,Catholic Elementary School,Humberwood Downs / Holy Child Catholic School,0,15,40,78,90,223,Y,Y,-79.619181875,43.728885862
382,4847,Centennial College Early Childhood Education Centre(550 Mortimer),Non Profit Agency,550 MORTIMER AVE,M4J,Purpose Built,Centennial College Of Applied Arts & Technology,10,15,32,0,0,57,Y,Y,-79.327313556,43.6906543865
383,4849,Macaulay - Keelesdale Child Care Centre,Non Profit Agency,200 BICKNELL AVE,M6M,Public Elementary School,Keelesdale Junior Public School,0,0,24,52,45,121,Y,Y,-79.4769495776,43.6869656849
384,4936,Sheppard Business Park Child Care Centre,Commercial Agency,1220 SHEPPARD AVE E,M2K,Other,,0,30,48,0,0,78,Y,Y,-79.3679681357,43.7743360277
385,4937,Elkhorn Junior Y - (Ymca),Non Profit Agency,10 ELKHORN DR,M2K,Public Elementary School,Elkhorn Public School,0,0,16,52,75,143,Y,Y,-79.3800656765,43.7712239993
386,4965,Maurice Cody Child Care,Non Profit Agency,364 BELSIZE DR,M4S,Public Elementary School,Maurice Cody Public School,0,0,0,117,285,402,Y,N,-79.377679017,43.704814314
387,4970,St. Lawrence Infant Toddler Centre (4 Market Street),Non Profit Agency,4 MARKET ST,M5E,High Rise Apartment,,20,20,0,0,0,40,Y,Y,-79.371723695,43.6477078
388,5070,Muppets Infant & Toddler Centre 312,Commercial Agency,312 MAIN ST,M4C,House,,10,15,38,0,0,63,Y,Y,-79.302289412,43.688600533
389,5166,Learning Jungle School - Briarcrest Manor,Commercial Agency,1982 ISLINGTON AVE,M9P,Multi Human Services Facility,,6,10,29,0,0,45,Y,Y,-79.5462608529,43.6953070741
390,5300,Orde Day Care Satellite (St. Patrick Street),Non Profit Agency,132 ST PATRICK ST,M5T,Public High School,Contact Alternative School,10,15,24,0,0,49,Y,Y,-79.390393903,43.653765729
391,5406,Tic Toc Day Care Centre Inc,Commercial Agency,1117 BIRCHMOUNT RD,M1K,House,,10,10,32,0,0,52,Y,Y,-79.280577203,43.7380360183
392,5468,Growing Tykes Learning Centre  910 Markham Road,Non Profit Agency,910 MARKHAM RD,M1H,Purpose Built,Growing Tykes Learning Centre,30,40,64,0,15,149,Y,Y,-79.2294634161,43.7690072784
393,5543,Millwood Jr Ymca,Non Profit Agency,222 MILL RD,M9C,Public Elementary School,Millwood Public School,0,0,16,39,45,100,Y,Y,-79.576914825,43.633409635
394,5702,Gilder Satellite Early Learning & Child Care Centre,Public (City Operated) Agency,47 GILDER DR,M1K,Low Rise Apartment,,0,0,16,0,0,16,Y,Y,-79.2553148807,43.7363547556
395,5792,Courtleigh Place Child Care Centre,Commercial Agency,135 FENELON DR,M3A,High Rise Apartment,,10,25,24,0,0,59,Y,Y,-79.337948675,43.7628388267
396,5808,Scarborough Day Nursery School,Commercial Agency,51 EASTWOOD AVE,M1N,House,,0,0,28,13,30,71,Y,Y,-79.2675415452,43.6919842617
397,5828,Muppets Children's Centre 314,Commercial Agency,314 MAIN ST,M4C,House,,10,10,32,0,0,52,Y,Y,-79.30233504,43.688667147
398,5834,Rockford Child Care,Non Profit Agency,60 ROCKFORD RD,M2R,Public Elementary School,Rockford Public School,0,15,24,52,60,151,Y,Y,-79.452441411,43.785800519
399,5847,"Studio 1,2,3 Early Learning Centre",Non Profit Agency,401 RICHMOND ST W,M5V,Other,401 Richmond,4,10,16,0,0,30,Y,Y,-79.3947484327,43.6477554326
400,5861,Harmony Childcare Centre,Non Profit Agency,124 NORTHCLIFFE BLVD,M6E,Catholic Elementary School,St. Clare Catholic School,0,0,44,39,60,143,Y,Y,-79.441554842,43.6794200483
401,5863,Institute Of Child Study After School Daycare,Non Profit Agency,45 WALMER RD,M5R,Other,University Of Toronto,0,0,24,0,30,54,N,N,-79.405875493,43.669613071
402,5871,St. Alphonsus,Non Profit Agency,540 ST CLAIR AVE W,M6C,Place of Worship,St. Alphonsus Catholic Church,0,10,24,0,15,49,N,N,-79.42028518,43.683084217
403,5873,Hippo Nursery School,Non Profit Agency,729 ST CLAIR AVE W,M6C,Place of Worship,St. Matthews United Church,0,10,32,0,0,42,N,Y,-79.427474551,43.681132814
404,5878,Bennington Heights Child Care Centre,Commercial Agency,76 BENNINGTON HEIGHTS DR,M4G,Public Elementary School,Bennington Heights Public School,0,15,24,0,0,39,N,Y,-79.368778086,43.693985401
405,5897,Seneca Hill Centre For Early Learning,Commercial Agency,350 SENECA HILL DR,M2J,High Rise Apartment,,20,20,40,10,0,90,Y,Y,-79.3561321835,43.7907821979
406,5908,St. Monica's Satellite (Central Eglinton),Non Profit Agency,14 BROADWAY AVE,M4P,Catholic Elementary School,St. Monica's Catholic School,0,0,0,26,45,71,Y,Y,-79.397627701,43.710159268
407,5958,Children's Playgarden /Toronto Military Family Resource Centre,Non Profit Agency,5 YUKON LANE,M3K,Other,,10,15,24,0,0,49,Y,Y,-79.4702196116,43.7504570812
408,6103,Withrow Child Care Centre,Non Profit Agency,25 BAIN AVE,M4K,Public Elementary School,Withrow Public School,0,0,24,52,90,166,Y,Y,-79.352129661,43.670460463
409,6366,Bessborough Child Care Centre,Non Profit Agency,211 BESSBOROUGH DR,M4G,Public Elementary School,Bessborough Drive Public School,0,0,0,39,71,110,Y,Y,-79.370135208,43.707214734
410,6374,Children's Creative Corner Co-Op Nursery School,Non Profit Agency,125 EVELYN CRES,M6P,Public High School,Western Technical Commercial School,0,0,14,0,0,14,N,Y,-79.474581515,43.657091487
411,6382,John G. Althouse - Princess Margaret,Non Profit Agency,65 TROMLEY DR,M9B,Public Elementary School,Princess Margaret Junior Public School,0,0,0,39,75,114,Y,Y,-79.559057753,43.671222028
412,6384,John G. Althouse B & A School Program,Non Profit Agency,130 LLOYD MANOR RD,M9B,Public Middle School,John G. Althouse Middle School,0,0,0,0,30,30,Y,Y,-79.554008773,43.668305319
413,6390,Plasp Father Serra Catholic School,Non Profit Agency,111 SUN ROW DR,M9P,Catholic Elementary School,Father Serra Catholic School,0,0,0,13,45,58,Y,Y,-79.537018133,43.685944235
414,6395,St. Gregory's Before & After School Club,Non Profit Agency,126 RATHBURN RD,M9B,Catholic Elementary School,St. Gregory's Catholic School,0,0,0,26,60,86,Y,Y,-79.544898562,43.660676065
415,6403,Etobicoke Montessori School,Commercial Agency,4 LA ROSE AVE,M9P,Purpose Built,Standalone Child Care Building,0,15,32,0,0,47,N,N,-79.5143947251,43.6869499036
416,6424,Plasp St. Clement Catholic School,Non Profit Agency,4319 BLOOR ST W,M9C,Catholic Elementary School,St. Clements Catholic School,10,15,24,26,60,135,Y,Y,-79.5738114812,43.632255859
417,6425,Humbervale Montessori School Inc (Facility #15068),Commercial Agency,1447 ROYAL YORK RD,M9P,Commercial Building,Humbervale Place,0,0,56,0,0,56,N,Y,-79.5276550192,43.6865275325
418,6427,Kingsway Nursery School,Commercial Agency,85 THE KINGSWAY,M8X,Place of Worship,Kingsway Lampton United Church,0,15,16,0,0,31,N,N,-79.5079172862,43.6529255028
419,6433,New Toronto Nursery Co-Operative Inc,Non Profit Agency,153 LAKE SHORE DR,M8V,Other,New Toronto Lawn Bowling Club,0,0,16,0,0,16,N,Y,-79.505561747,43.594489548
420,6437,Prince Edward Montessori School Of Toronto,Commercial Agency,2850 BLOOR ST W,M8X,Place of Worship,All Saints Anglican Church,0,0,32,0,0,32,N,N,-79.5050576075,43.6490891371
421,6445,Sonechko Day Care Incorporated,Non Profit Agency,301 LANOR AVE,M8W,Public (school closed),Douglas Park Public School (Closed),0,9,24,0,0,33,N,N,-79.533610482,43.611189672
422,6447,St. George's School Age Child Care Programme,Non Profit Agency,70 PRINCESS ANNE CRES,M9A,Public Elementary School,St. George's Junior Public School,0,0,0,26,60,86,Y,N,-79.5417154823,43.6726090822
423,6449,Sunnylea Child Care Centre,Non Profit Agency,35 GLENROY AVE,M8Y,Public Elementary School,Sunnylea Junior School,0,10,24,45,90,169,Y,Y,-79.506873249,43.642443984
424,6451,Sunnylea Co-Operative Nursery School,Non Profit Agency,86 MONTGOMERY RD,M9A,Public High School,Etobicoke Collegiate,0,15,16,0,0,31,N,Y,-79.522299488,43.6500927805
425,6453,Plasp Humber Valley Village Junior Middle School,Non Profit Agency,65 HARTFIELD RD,M9A,Public Elementary School,Humber Valley Village Junior Middle Public School,0,0,0,13,45,58,Y,Y,-79.526566603,43.665443504
426,6459,Princess Margaret Nursery School,Non Profit Agency,70 PRINCESS ANNE CRES,M9A,Public Elementary School,St. George's Junior Public School,0,8,16,0,0,24,N,N,-79.5417154823,43.6726090822
427,6463,Hydro Bright Lights Childcare Centre,Non Profit Agency,800 KIPLING AVE,M8Z,Purpose Built,Ontario Power Generator Plant,10,15,16,10,0,51,N,Y,-79.531536123,43.630424981
428,6465,Lambton - Kingsway B & After School Program,Non Profit Agency,525 PRINCE EDWARD DR N,M8X,Public Elementary School,Lamton-Kingsway Junior Middle School,0,0,0,39,105,144,Y,N,-79.5093180864,43.6586658017
429,6467,Royal York Road School,Non Profit Agency,851 ROYAL YORK RD,M8Y,Place of Worship,Royal York Road United Church,0,15,32,0,0,47,N,Y,-79.508920952,43.6427466413
430,6471,Plasp All Saints Catholic School,Non Profit Agency,1435 ROYAL YORK RD,M9P,Catholic Elementary School,All Saints Catholic School,0,0,0,26,60,86,Y,Y,-79.527081124,43.685221626
431,6474,Silver Creek Centre For Early Learning & Development,Non Profit Agency,65 HARTSDALE DR,M9R,Public (school closed),Silver Creek Nursery School,0,10,30,0,0,40,Y,Y,-79.545231309,43.6832369806
432,6476,Garderie Rayon De Soleil,Non Profit Agency,1 NESS DR,M3A,Catholic Elementary (French),Ste. Madeleine Catholic School,0,0,16,26,45,87,Y,Y,-79.322822131,43.762470729
433,6480,Wee Leprechauns Child Care Centre Ltd,Commercial Agency,235 THE DONWAY E,M3B,Place of Worship,Donway Baptist Church,0,15,16,0,0,31,N,Y,-79.3423512134,43.7406999209
434,6498,Lansing Co-Op Nursery School,Non Profit Agency,80 CHURCH AVE,M2N,Purpose Built,Lansing Co-Op Nursery,0,0,40,0,0,40,N,Y,-79.4097662808,43.7749379727
435,6508,Lee Wiggins Childcare Centre (The),Non Profit Agency,4700 KEELE ST,M3J,Other,York University,0,10,15,0,0,25,N,Y,-79.502338172,43.773410085
436,6513,Armour Heights Child Care Program,Non Profit Agency,148 WILSON AVE,M5M,Public Elementary School,Armour Heights Public School,0,0,24,26,60,110,Y,Y,-79.4195255366,43.7409186369
437,6519,Carmelite Missionary Sisters Of Saint Theresa Of The Child Jesus,Non Profit Agency,1196 WILSON AVE,M3M,Purpose Built,Carmelite Missionary Sisters,0,14,48,0,6,68,N,N,-79.488557972,43.725483625
438,6521,Temple Sinai Nursery School,Non Profit Agency,210 WILSON AVE,M5M,Synagogue,Temple Sinai Congregation,0,45,20,0,0,65,N,Y,-79.4255595684,43.7396139481
439,6527,Blessed Trinity Before & After School,Non Profit Agency,3205 BAYVIEW AVE,M2K,Catholic Elementary School,Blessed Trinity Catholic School,0,15,22,13,30,80,Y,Y,-79.3918294528,43.7869061505
440,6535,Hillcrest Progressive School,Non Profit Agency,59 PLYMBRIDGE RD,M2P,Purpose Built,Hillcrest Progressive School,0,15,24,13,0,52,N,N,-79.397727865,43.74072322
441,6543,Agincourt Montessori School Inc.,Commercial Agency,2575 MIDLAND AVE,M1S,Place of Worship,Knox United Church,0,0,40,0,0,40,N,N,-79.2787073937,43.7864518849
442,6545,Agincourt Temple Day Care(Governing Council Of The Salvation Army),Non Profit Agency,3080 BIRCHMOUNT RD,M1W,Place of Worship,,10,15,24,0,0,49,Y,Y,-79.309387158,43.803441261
443,6549,Bridlegrove Daycare Centre,Non Profit Agency,2575 PHARMACY AVE,M1W,Place of Worship,Bridlegrove Bible Chapel,0,15,40,0,0,55,Y,Y,-79.3247934524,43.7940522705
444,6551,Beechgrove Sunshine Child Care,Non Profit Agency,4679 KINGSTON RD,M1E,Commercial Building,,10,23,48,0,40,121,N,Y,-79.1729356071,43.7758028822
445,6553,Fairmount Sunshine Child Care,Non Profit Agency,31 SLOLEY RD,M1M,Public Elementary School,Fairmount Junior Public School,0,0,24,26,60,110,Y,Y,-79.230894183,43.71975809
446,6555,Simcoe Sunshine Child Care (166 Sylvan Avenue),Non Profit Agency,166 SYLVAN AVE,M1E,Public Elementary School,Elizabeth Simcoe Junior Public School,0,0,24,26,60,110,Y,Y,-79.2060380481,43.7381605682
447,6557,Sunshine Child Care Centre (Mackie Sunshine C C. Inc) - 60 Heathfield,Non Profit Agency,60 HEATHFIELD DR,M1M,Public Elementary School,George P. Mackie Public School,0,0,0,0,27,27,Y,Y,-79.2119971538,43.7393359146
448,6559,Holland-Bloorview Kids Rehab. (Scarborough Site),Non Profit Agency,1 WAYNE AVE,M1R,Public Elementary School,George Peck Public School,0,0,16,0,0,16,Y,Y,-79.2936384069,43.7382670776
449,6563,After Four Children's Enrichment Program,Non Profit Agency,10 JAPONICA RD,M1R,Catholic Elementary School,Our Lady Of Wisdom Catholic School,0,0,0,0,60,60,N,N,-79.308346371,43.761946577
450,6571,Banting And Best Child Care Centre (380 Goldhawk),Non Profit Agency,380 GOLDHAWK TRAIL,M1V,Public Elementary School,Banting And Best Public School,0,0,32,26,60,118,Y,Y,-79.279833503,43.826871413
451,6573,Charlottetown Blvd. Childcare Centre,Non Profit Agency,111 ISLAND RD,M1C,Commercial Building,Westrouge Plaza,0,15,48,13,15,91,N,Y,-79.1374190395,43.7978043239
452,6575,Chartland Child Care Inc,Non Profit Agency,109 CHARTLAND BLVD S,M1S,Public Elementary School,Chartland Junior Public School,0,0,24,26,30,80,Y,Y,-79.278504345,43.79998872
453,6577,Cheer Day Care Centre,Non Profit Agency,3300 KENNEDY RD,M1V,Place of Worship,Toronto Chinese United Church,0,15,32,0,0,47,Y,Y,-79.3048338098,43.8174968444
454,6583,Good Shepherd Day Care Centre,Non Profit Agency,2230 BIRCHMOUNT RD,M1T,Place of Worship,Toronto Mandarin Chinese Community Church,0,10,40,0,15,65,N,Y,-79.2975812515,43.7793684117
455,6587,Meadowvale Daycare Centre,Non Profit Agency,761 MEADOWVALE RD,M1C,Public Elementary School,Meadowvale Public School,0,0,16,13,30,59,Y,Y,-79.164068184,43.795511013
456,6593,St. Crispins Day Care Centre,Non Profit Agency,530 MIDLAND AVE,M1N,Place of Worship,,0,10,14,0,30,54,Y,Y,-79.2512047325,43.7173807844
457,6597,Dearham Wood Daycare,Non Profit Agency,66 DEARHAM WOOD,M1E,Public Elementary School,Poplar Road Public School,0,0,24,26,30,80,Y,Y,-79.187240846,43.753730622
458,6608,Holland-Bloorview Kids Rehab. - (Play & Learn Nursery),Non Profit Agency,666 EGLINTON AVE W,M5N,Purpose Built,,0,15,16,0,0,31,Y,Y,-79.4205906082,43.7024030416
459,6616,Rosedale Moore Park Association/Mooredale Preschool - Coach House,Non Profit Agency,146 CRESCENT RD,M4W,Community/Recreation Centre,Mooredale House,0,0,38,23,0,61,N,N,-79.380410055,43.678549972
460,6620,Shaawnong Aboriginal Head Start,Non Profit Agency,935 DUNDAS ST E,M4M,Public Elementary School,Dundas Junior  Public School,0,0,16,0,0,16,N,N,-79.348686332,43.662077745
461,6624,Kids Club (Day Care Connection),Non Profit Agency,780 KINGSTON RD,M4E,Catholic Elementary School,St. John Catholic School,0,0,0,26,92,118,Y,Y,-79.294568676,43.68022438
462,6628,North Yonge Child Care,Commercial Agency,27 MELROSE AVE,M5M,House,,10,15,0,0,0,25,N,Y,-79.405041407,43.732569466
463,6630,North Yonge Child Care 2,Commercial Agency,25 MELROSE AVE,M5M,House,,0,0,32,0,0,32,N,Y,-79.40496873,43.732550664
464,6632,A Place To Play Nursery School Of Bloor West Village,Non Profit Agency,680 ANNETTE ST,M6S,Place of Worship,Runnymede Presbyterian,0,0,16,0,0,16,N,Y,-79.485014309,43.659338094
465,6636,Beaches Co-Operative Playschool Inc.,Non Profit Agency,975 KINGSTON RD,M4E,Place of Worship,Kingston Road United Church,0,0,20,0,0,20,N,N,-79.286566455,43.680213171
466,6638,Miles Nadal Community Centre Nursery School,Non Profit Agency,750 SPADINA AVE,M5S,Community/Recreation Centre,Miles Nadal Jewish Community Centre,0,30,52,37,70,189,N,Y,-79.404062257,43.666206584
467,6640,Bloor West Nursery School,Non Profit Agency,432 RUNNYMEDE RD,M6S,Place of Worship,Runnymede United Church,0,0,16,0,0,16,N,Y,-79.4792143879,43.6568101487
468,6648,Community Centre 55 - Children Services (97 Main Street),Non Profit Agency,97 MAIN ST,M4E,Community/Recreation Centre,Community Centre 55,0,0,24,0,0,24,N,Y,-79.299130845,43.682093137
469,6652,Dover Gardens Nursery School,Non Profit Agency,228 BARTLETT AVE,M6H,Public Elementary School,Dovercourt Public School,0,0,16,0,0,16,N,Y,-79.435778958,43.666735608
470,6660,The Clover School,Commercial Agency,3180 BATHURST ST,M6A,Place of Worship,,0,20,94,0,0,114,N,N,-79.431249076,43.722665488
471,6674,Leroux Froebel Bilingual School,Commercial Agency,72 MAIN ST,M4E,Place of Worship,Calvary Baptist Church,10,15,23,19,27,94,N,Y,-79.299243703,43.680983142
472,6676,Little Tots' Manor,Commercial Agency,211 BELSIZE DR,M4S,House,,10,37,28,0,0,75,N,Y,-79.386810635,43.7025024742
473,6680,Manor Road Co-Operative Nursery School,Non Profit Agency,111 MANOR RD E,M4S,Place of Worship,The Church Of The Transfiguration,0,0,24,0,0,24,N,Y,-79.391052927,43.703546785
474,6682,McMurrich Co-Op Play School,Non Profit Agency,115 WINONA DR,M6G,Public Elementary School,McMurrich Public School,0,0,16,0,0,16,N,N,-79.431061957,43.678076368
475,6686,Montessori For Children (St. Clair) Inc,Commercial Agency,25 ALVIN AVE,M4T,House,Montessori For Children,0,0,48,0,0,48,N,N,-79.392672134,43.689307751
476,6690,Sisters Of Our Lady Of Mount Carmel,Non Profit Agency,2700 JANE ST,M3L,Other,,10,15,48,13,15,101,N,Y,-79.5143712366,43.7415567499
477,6692,My School Co-Op Nursery School,Non Profit Agency,116 FERMANAGH AVE,M6R,Catholic Elementary School,St. Vincent De Paul,0,0,22,0,0,22,N,N,-79.4479262725,43.6468378426
478,6697,Oriole Nursery School,Non Profit Agency,1570 YONGE ST,M4T,Place of Worship,Christ Church Deer Park,0,0,16,0,0,16,N,N,-79.395810113,43.69027124
479,6703,Sadochok Preschool Centre,Non Profit Agency,35 WEST DEANE PARK DR,M9B,Catholic Elementary School,Joseph Cardinal Slipyj Catholic School,0,10,46,0,0,56,N,N,-79.566028697,43.6594837738
480,6705,The Scott Mission Child Care Centre,Non Profit Agency,1550 O CONNOR DR,M4B,Purpose Built,The Scott Mission,10,15,16,0,0,41,Y,Y,-79.3064675551,43.7143881788
481,6709,St. Alban's Boys And Girls Club Preschool,Non Profit Agency,843 PALMERSTON AVE,M6G,Community/Recreation Centre,St Alban's Boys And Girls Club,0,25,44,0,0,69,Y,Y,-79.415679242,43.671409987
482,6711,St. Clement's Early Learning School,Commercial Agency,70 ST CLEMENTS AVE,M4R,Place of Worship,St. Clement's Anglican Church,0,0,55,0,0,55,N,N,-79.401793778,43.712610874
483,6713,Stepping Stones Day Nursery,Commercial Agency,342 RUNNYMEDE RD,M6S,House,,0,15,24,0,0,39,N,Y,-79.477879152,43.654233216
484,6715,The Creative Preschool Of East Toronto,Non Profit Agency,16 PHIN AVE,M4J,Public High School,Eastern Commerce Collegiate Institute,0,0,44,0,22,66,N,Y,-79.336636055,43.679140236
485,6719,Ranleigh Rascals,Non Profit Agency,81 RANLEIGH AVE,M4N,Public Elementary School,Bedford Park Public School,0,0,16,50,110,176,Y,Y,-79.400278367,43.72779826
486,6723,Time For Play Nursery School,Non Profit Agency,125 EVELYN CRES,M6P,Public High School,Western Technical Commercial High School,0,0,16,0,0,16,N,Y,-79.474581515,43.657091487
487,6731,Ukrainian Co-Op Nursery School,Non Profit Agency,516 THE KINGSWAY,M9A,Place of Worship,St. Paul's,0,15,20,13,0,48,N,Y,-79.5481942972,43.6735849789
488,6744,Toronto Hebrew Congregation/Holy Blossom Temple Preschool,Non Profit Agency,1950 BATHURST ST,M5P,Synagogue,Holy Blossom Temple,0,40,48,0,0,88,N,Y,-79.4252634693,43.6982858229
489,6746,Humbercrest Nursery School,Non Profit Agency,569 JANE ST,M6S,Public High School,Runnymede Collegiate,0,0,14,0,0,14,N,N,-79.4898146564,43.6635408493
490,6752,St. Bernadette's Family Resource Centre,Non Profit Agency,20 BANSLEY AVE,M6E,Catholic Elementary School,D'Arcy McGee,0,10,16,0,30,56,Y,Y,-79.4429148435,43.6922642125
491,6777,Huron Playschool Co-Operative,Non Profit Agency,383 HURON ST,M5S,Place of Worship,St. Thomas Anglican Church,0,0,16,0,0,16,N,Y,-79.400741945,43.665917142
492,6789,Banting And Best Schoolage Satellite(255 Alton Towers),Non Profit Agency,255 ALTON TOWERS CIR,M1V,Catholic Elementary School,Prince Of Peace Catholic School,0,0,0,13,30,43,Y,Y,-79.2789475262,43.8253976827
493,6809,Yes I Can Nursery School,Non Profit Agency,25 OLD YORK MILLS RD,M2P,Place of Worship,,0,0,24,0,0,24,Y,Y,-79.4043124,43.74340394
494,6860,Gibraltar Point Day Nursery Inc.,Non Profit Agency,30 CENTRE ISLAND PK,M5J,Public Elementary School,Island Public & Natural Science School,0,0,16,0,0,16,Y,Y,-79.3783913628,43.6157088532
495,6899,Rosedale Moore Park Association/Mooredale Preschool - Main House,Non Profit Agency,146 CRESCENT RD,M4W,Community/Recreation Centre,Mooredale House,0,15,16,0,0,31,N,N,-79.380410055,43.678549972
496,6953,Rene Gordon School Age Ymca,Non Profit Agency,20 KAREN RD,M3A,Public Elementary School,Rene Gordon Public School,0,0,0,13,30,43,Y,Y,-79.340143062,43.761903038
497,7055,York Mills Child Care Centre,Commercial Agency,1200 YORK MILLS RD,M3A,High Rise Apartment,,10,20,40,0,0,70,Y,Y,-79.3350153122,43.759658618
498,7108,Phoenix Montessori School Inc.,Commercial Agency,2 STATION RD,M8V,Public (school closed),The Phoenix Montessori School,10,26,13,76,0,125,N,N,-79.4936853466,43.6129950131
499,7111,Bowmore,Non Profit Agency,80 BOWMORE RD,M4L,Public Elementary School,Bowmore Public School,0,0,37,52,0,89,Y,Y,-79.314491719,43.676063663
500,7230,Hillside Montessori School,Commercial Agency,76 ANGLESEY BLVD,M9A,Place of Worship,Humber Valley United Church,0,0,24,0,0,24,N,N,-79.5289902912,43.6651457866
501,7236,Ikebata Nursery School,Commercial Agency,6 SAKURA WAY,M3C,Community/Rec Centre - Private,Japanese Cultural Centre,0,15,32,33,0,80,N,Y,-79.334995643,43.726380684
502,7382,Centennial Infant And Child Centre,Non Profit Agency,1580 YONGE ST,M4T,Purpose Built,,0,0,32,0,0,32,Y,Y,-79.395474417,43.690565023
503,7491,Learning Garden Childcare,Commercial Agency,69 SIX POINT RD,M8Z,Commercial Building,Commercial Retrofit - Single Unit,0,14,46,0,0,60,N,Y,-79.524034699,43.635910085
504,7505,The Rec Room Before & After School Program,Commercial Agency,255 ROYAL YORK RD,M8V,Community Rec/Centre - Board Run,Mimico Adult Centre,0,0,24,48,108,180,N,Y,-79.496646228,43.613076331
505,7528,My Little School,Commercial Agency,1492 VICTORIA PARK AVE,M4A,Other,,10,15,24,0,20,69,Y,Y,-79.3026378767,43.7237048827
506,7549,Plasp St. Pius X Catholic School,Non Profit Agency,71 JANE ST,M6S,Catholic Elementary School,St. Pius X,0,0,0,13,30,43,Y,Y,-79.4847166048,43.651285804
507,7652,Friendly Little Campus Daycare 2,Commercial Agency,63 ORCHARD PARK DR,M1E,Purpose Built,,20,30,32,0,0,82,Y,Y,-79.1807113416,43.7751965143
508,7689,Rawlinson B & A School Program,Non Profit Agency,231 GLENHOLME AVE,M6E,Public Elementary School,Rawlinson Community School,0,0,0,78,75,153,Y,Y,-79.4400466717,43.6839856509
509,7693,King George B & A School Program,Non Profit Agency,25 REXFORD RD,M6S,Public Elementary School,King George Junior Public School,0,0,0,26,60,86,Y,Y,-79.486886751,43.663162689
510,7699,Weston Memorial B & A School Program,Non Profit Agency,200 JOHN ST,M9N,Public Elementary School,Weston Memorial Junior Public School,0,0,0,13,15,28,Y,Y,-79.5093332103,43.7059867365
511,7708,Garderie La Farandole - Pierre Elliott Trudeau,Non Profit Agency,77 GRACE ST,M6J,Public Elementary (French),Ecole Elementaire Pierre Elliott Trudeau,0,10,24,39,60,133,Y,Y,-79.414544107,43.653067599
512,7712,Scarborough Citadel Child Care,Non Profit Agency,2021 LAWRENCE AVE E,M1R,Church,Salvation Army Scarborough Citadel Corp.,10,15,24,0,0,49,Y,Y,-79.2950132185,43.7450563709
513,7766,Maplewood Before And After School Care,Non Profit Agency,15 CHERRYWOOD AVE,M6C,Public Elementary School,Humewood Community School,0,0,0,0,60,60,Y,N,-79.4280237018,43.6866436809
514,7818,Ascot Avenue Community Day Care,Non Profit Agency,95 REGAL RD,M6H,Public Elementary School,Regal Road Public School,0,0,0,65,75,140,Y,Y,-79.440063285,43.673775167
515,7939,Plasp Holy Angels Catholic School,Non Profit Agency,100 ALLANHURST DR,M9A,Catholic Elementary School,Holy Angels Catholic School,0,0,0,13,30,43,Y,Y,-79.519473519,43.680147631
516,7978,Future Stars Child Care Centre,Commercial Agency,3895 LAWRENCE AVE E,M1G,High Rise Apartment,,0,0,24,0,28,52,Y,Y,-79.2079803013,43.7631364672
517,7981,Petite Maison Montessori,Commercial Agency,126 O CONNOR DR,M4K,Place of Worship,Don Mills United Church,0,15,48,0,0,63,N,Y,-79.350736114,43.693462739
518,7987,Broadlands School Age Program Ymca,Non Profit Agency,106 BROADLANDS BLVD,M3A,Public Elementary School,Broadlands Public School,0,0,0,13,45,58,Y,Y,-79.316462275,43.745727722
519,8162,Growing Tykes Child Care,Non Profit Agency,4105 LAWRENCE AVE E,M1E,Purpose Built,Growing Tykes Learning Centre,30,40,72,0,0,142,Y,Y,-79.19521008,43.766151054
520,8163,Parkdale Early Learning Centre - CDI - 119 Close Ave.,Non Profit Agency,119 CLOSE AVE,M6K,House,,10,15,24,0,0,49,Y,Y,-79.434310022,43.637102709
521,8168,St. Robert School Age Ymca,Non Profit Agency,70 BAINBRIDGE AVE,M3H,Catholic Elementary School,St. Robert Catholic School,0,0,0,26,30,56,Y,Y,-79.444145181,43.749657532
522,8169,Carousel Child Care Development Centre,Commercial Agency,623 FINCH AVE W,M2R,High Rise Apartment,,0,14,32,0,0,46,Y,Y,-79.45390216,43.770916893
523,8198,Play And Grow Child Care Centre,Non Profit Agency,227 DREWRY AVE,M2M,Public Elementary School,R J Lang Public School,0,0,0,26,45,71,Y,Y,-79.4265137302,43.7834939824
524,8200,Avalon Children's Montessori School,Commercial Agency,31 WOOD GLEN RD,M1N,Place of Worship,Fallingbrook Presbyterian Church,0,0,31,0,0,31,N,N,-79.275433602,43.68415499
525,8205,Montessori Jewish Day School Of Toronto,Non Profit Agency,55 YEOMANS RD,M3H,Synagogue,Beth David Synagogue,0,30,22,23,0,75,N,Y,-79.4398430913,43.7492594631
526,8258,Apple Day Care Centre,Commercial Agency,3434 EGLINTON AVE E,M1J,High Rise Apartment,,6,10,24,0,15,55,Y,Y,-79.2112167788,43.7456216056
527,8477,Birchmount Bluffs Neighbourhood Centre Community Nursery School,Non Profit Agency,93 BIRCHMOUNT RD,M1N,Purpose Built,Birchmount Bluffs Neighbourhood Centre,0,0,16,0,0,16,N,Y,-79.26233166,43.695419466
528,8570,Kids Zone Daycare Inc.,Commercial Agency,123 GLENDALE AVE,M6R,House,,0,15,36,0,0,51,N,Y,-79.450800535,43.642548368
529,8703,"St. Bartholomew's Children's Centre, Regent Park Inc.",Non Profit Agency,509 DUNDAS ST E,M5A,Place of Worship,St. Bartholomew's Anglican Church,0,0,0,0,30,30,Y,Y,-79.363900986,43.659712951
530,8743,Muppets Children's Centre 316,Commercial Agency,316 MAIN ST,M4C,House,,6,20,0,0,0,26,Y,Y,-79.302406039,43.688736414
531,8823,Grace Christian School - Day Nursery,Non Profit Agency,201 TEMPO AVE,M2H,Place of Worship,Grace Chinese Gospel Church Of North York,10,25,56,0,0,91,Y,Y,-79.3397704469,43.8052990562
532,8826,Plasp Islington Junior Middle School,Non Profit Agency,44 CORDOVA AVE,M9A,Public Elementary School,Islington Junior Middle School,0,0,0,26,45,71,Y,Y,-79.527946686,43.647482818
533,8827,Plasp St. Elizabeth Catholic School,Non Profit Agency,5 REDCAR AVE,M9B,Catholic Elementary School,St. Elizabeth Catholic School,0,0,0,0,30,30,Y,Y,-79.557453673,43.635155164
534,8905,Rhyme & Reason Day Care,Commercial Agency,474 BROWNS LINE,M8W,Purpose Built,Child Care Centre - Single Unit,0,10,26,0,20,56,N,N,-79.5461132354,43.6026620321
535,8929,N.Y.A.D. Midland,Non Profit Agency,720 MIDLAND AVE,M1K,Public High School,Scarborough Centre For Alternative Studies,10,20,24,0,0,54,Y,Y,-79.256586692,43.728360512
536,9001,Forest Grove Montessori Preschool,Commercial Agency,43 FOREST GROVE DR,M2K,Place of Worship,Forest Grove United Church,0,0,24,0,0,24,N,Y,-79.3792651027,43.7793979661
537,9017,Northwest Childhood Learning Centre,Commercial Agency,2978 ISLINGTON AVE,M9L,Other,,0,15,32,0,0,47,Y,Y,-79.571215997,43.758645473
538,9240,Finch Business Park Child Care,Commercial Agency,1183A FINCH AVE W,M3J,Other,,20,30,48,0,0,98,Y,Y,-79.482986147,43.764266593
539,9294,Le Petit Chaperon Rouge - Coxwell,Non Profit Agency,419 COXWELL AVE,M4L,Low Rise Apartment,,6,15,48,0,0,69,Y,Y,-79.320512949,43.677246214
540,9320,Plasp St. Cecilia Catholic School,Non Profit Agency,355 ANNETTE ST,M6P,Catholic Elementary School,St. Cecilia Catholic School,0,0,0,26,75,101,Y,Y,-79.474657944,43.660794574
541,9330,Garderie Mon Petit Jardin,Non Profit Agency,500 SANDHURST CIR,M1S,Catholic Elementary (French),Ecole St. Jean De Lalande,6,10,16,26,45,103,Y,Y,-79.264091476,43.8047586383
542,9373,Head Start Montessori,Commercial Agency,2235 SHEPPARD AVE E,M2J,Place of Worship,Garden Church,10,30,24,0,0,64,N,N,-79.32785296,43.772724647
543,9433,Yorktown Montessori School,Commercial Agency,349 KENNETH AVE,M2N,Place of Worship,Willowdale United Church,0,0,24,0,0,24,N,Y,-79.4098254553,43.7757969062
544,9444,Lullaboo Nursery And Childcare Center - Bedford Campus,Commercial Agency,11 BEDFORD PARK AVE,M5M,Place of Worship,North Toronto Early Years Learning Centre,10,26,24,0,0,60,N,Y,-79.4035164512,43.7271119912
545,9456,Wilmington Best Schoolage Satellite Centre,Non Profit Agency,285 WILMINGTON AVE,M3H,Public Elementary School,Charles H. Best East Public School,0,0,0,0,30,30,Y,Y,-79.458630234,43.767445246
546,9462,St. Vincent Sunshine,Non Profit Agency,116 FERMANAGH AVE,M6R,Catholic Elementary School,St. Vincent De Paul,0,0,0,20,30,50,N,N,-79.4479262725,43.6468378426
547,9465,Mackie Sunshine Childcare Inc. - St. Denis Sunshine,Non Profit Agency,67 BALSAM AVE,M4E,Catholic Elementary School,St. Denis Catholic School (Jr),0,0,0,0,30,30,N,N,-79.28990762,43.672998343
548,9467,The Village Shul And Learning Centre Of Toronto,Non Profit Agency,1072 EGLINTON AVE W,M6C,Place of Worship,The Village Shul,0,30,40,0,0,70,N,Y,-79.431434535,43.69998653
549,9470,Norseman Jr Ymca,Non Profit Agency,80 LOTHIAN AVE,M8Z,Community/Rec Centre - City,Fairfield Senior Centre,0,0,16,0,0,16,Y,Y,-79.519311798,43.639678028
550,9471,Norseman School Age Program (Ymca),Non Profit Agency,105 NORSEMAN ST,M8Z,Public Elementary School,Norseman Public School,0,0,0,78,120,198,Y,Y,-79.51632975,43.63430526
551,9536,Pineway Child Care Learning Center,Non Profit Agency,110 PINEWAY BLVD,M2H,Public Elementary School,Pineway Public School,0,15,48,26,30,119,Y,Y,-79.374515527,43.796417773
552,9540,Bruce Woodgreen Early Learning Centre,Non Profit Agency,51 LARCHMOUNT AVE,M4M,Public Elementary School,Bruce Public School,0,15,24,52,60,151,Y,Y,-79.33333606,43.661035814
553,9573,Teddy Bear Educare Advance,Commercial Agency,86 ADVANCE RD,M8Z,Commercial Building,Single Unit,0,15,48,0,0,63,N,Y,-79.5233839337,43.6353279054
554,9595,City Kids Early Learning & Child Care Centre,Public (City Operated) Agency,34 BATHURST ST,M5V,Purpose Built,,20,20,32,0,0,72,Y,Y,-79.401978334,43.641245004
555,9607,Children's Magic Moments Child Care And Nursery School,Commercial Agency,98 BRAEMAR AVE,M5P,Purpose Built,,10,15,24,0,0,49,N,Y,-79.409374963,43.702963173
556,9608,Sunnyside Day Care - Roncesvalles,Commercial Agency,10 HIGH PARK BLVD,M6R,House,,10,45,32,0,0,87,N,Y,-79.450472422,43.646387076
557,9633,Treasured Moments - Bloor,Commercial Agency,3107 BLOOR ST W,M8X,Commercial Building,,10,20,48,0,0,78,N,Y,-79.5160188144,43.6460913846
558,9658,Network Child Care Services - Wade Avenue Centre,Non Profit Agency,544 LANSDOWNE AVE,M6H,High Rise Apartment,Tamil Co-Operative Homes Inc.,0,15,24,0,0,39,Y,Y,-79.443406467,43.659382928
559,9679,Mackie Sunshine Child Care Inc.St. Joseph's Sunshine,Non Profit Agency,176 LESLIE ST,M4M,Catholic Elementary School,St. Joseph's Catholic School,0,0,8,0,15,23,N,N,-79.331890548,43.66580807
560,9703,The Beez Kneez  Lytton Park,Commercial Agency,1252 AVENUE RD,M5N,House,House,0,10,28,0,0,38,N,N,-79.412250644,43.714515261
561,9707,Growing Tykes Learning Centre (Dundas Street West),Non Profit Agency,5150 DUNDAS ST W,M9A,Purpose Built,,20,35,64,0,0,119,Y,Y,-79.5339742539,43.643618508
562,9741,University Of Toronto Early Learning Centre - Glen Morris,Non Profit Agency,7 GLEN MORRIS ST,M5S,Purpose Built,,10,30,56,0,0,96,Y,Y,-79.401114578,43.663949319
563,9742,University Of Toronto Early Learning Centre - O.I.S.E.,Non Profit Agency,252 BLOOR ST W,M5S,Community College/University,Ontario Institute For Studies In Education (Oise),0,10,16,0,0,26,Y,Y,-79.398672217,43.668435727
564,9764,Childspace Day Care Corporation # 3 (49 Felstead Avenue),Non Profit Agency,49 FELSTEAD AVE,M4J,Catholic High School,St. Patrick Catholic High School,10,20,32,0,0,62,Y,Y,-79.327649482,43.678322299
565,9768,University Of Toronto Childcare On Charles,Non Profit Agency,35 CHARLES ST W,M4Y,High Rise Apartment,Tower Co-Op,10,15,40,0,0,65,Y,Y,-79.387502519,43.668190018
566,9780,Boulton Avenue Child Care Centre,Non Profit Agency,131 BROADVIEW AVE,M4M,Other,Royal Canadian Curling Club,10,15,47,0,0,72,Y,Y,-79.349925343,43.659841955
567,9800,Central Montessori Schools - York Mills Campus,Commercial Agency,18 COLDWATER RD,M3B,Private Elementary School,Central Montessori Private School,20,71,144,0,0,235,N,Y,-79.35846062,43.7558375353
568,9815,Kids & Company - Bloor Street Site,Commercial Agency,160 BLOOR ST E,M4W,Office Building,Unilever Office Building,20,25,40,0,0,85,N,Y,-79.3830486971,43.6716320246
569,9847,Kids & Company - Front Street Site,Commercial Agency,320 FRONT ST W,M5V,Other,,9,19,24,10,0,62,N,Y,-79.3910194154,43.6439951495
570,9916,Broad View French Montessori School,Commercial Agency,903 PAPE AVE,M4K,Commercial Building,,0,14,19,0,0,33,N,Y,-79.3467750892,43.6848020941
571,9927,Kids & Company Ltd. - Wellington Site,Commercial Agency,95 WELLINGTON ST W,M5J,Office Building,Fogler Rubinoff Building,30,40,45,0,0,115,N,Y,-79.382128116,43.646452723
572,9928,Don Mills Children's Centre,Commercial Agency,33 KERN RD,M3B,Other,,6,10,16,0,0,32,Y,Y,-79.3503322847,43.7488809564
573,9939,Woodgreen Community Services (The)(Debbie Yeung Child Care Centre),Non Profit Agency,249 COSBURN AVE,M4J,Purpose Built,Woodgreen Community Services-Homeward Bound,10,25,24,0,0,59,Y,Y,-79.342079874,43.690556059
574,9965,Martin Luther Child Care - Lakeshore,Non Profit Agency,2379 LAKE SHORE BLVD W,M8V,Church,,0,0,0,0,30,30,Y,Y,-79.4880023903,43.6153407975
575,9989,Prodigy Learning Centre,Commercial Agency,1545 JANE ST,M9N,High Rise Apartment,,0,10,24,0,0,34,Y,Y,-79.501944194,43.698531019
